# Time (s),Altitude (m),Vertical velocity (m/s),Vertical acceleration (m/s²),Total velocity (m/s),Total acceleration (m/s²),Position East of launch (m),Position North of launch (m),Lateral distance (m),Lateral direction (°),Lateral velocity (m/s),Lateral acceleration (m/s²),Latitude (°),Longitude (°),Gravitational acceleration (m/s²),Angle of attack (°),Roll rate (°/s),Pitch rate (°/s),Yaw rate (°/s),Mass (kg),Motor mass (kg),Longitudinal moment of inertia (kg·m²),Rotational moment of inertia (kg·m²),CP location (mm),CG location (mm),Stability margin calibers (​),Mach number (​),Reynolds number (​),Thrust (N),Drag force (N),Drag coefficient (​),Axial drag coefficient (​),Friction drag coefficient (​),Pressure drag coefficient (​),Base drag coefficient (​),Normal force coefficient (​),Pitch moment coefficient (​),Yaw moment coefficient (​),Side force coefficient (​),Roll moment coefficient (​),Roll forcing coefficient (​),Roll damping coefficient (​),Pitch damping coefficient (​),Coriolis acceleration (m/s²),Reference length (m),Reference area (m²),Vertical orientation (zenith) (°),Lateral orientation (azimuth) (°),Wind velocity (m/s),Air temperature (°C),Air pressure (mbar),Speed of sound (m/s),Simulation time step (s),Computation time (s)
0.01,0.009,1.786,178.667,1.786,178.667,0,0,0,0,0,0,28.61,-80.6,9.792,52.23,0,0,0,2.613,0.809,0.709,0.002,NaN,969.979,NaN,0.009,3.746e5,492.537,0.006,0.585,0.258,0.534,0.001,0.051,NaN,NaN,NaN,NaN,NaN,NaN,NaN,NaN,2.287e-4,0.077,0.005,90,0,2.305,15,1013.249,340.389,0.01,0.043
0.02,0.037,3.841,205.505,3.841,205.505,0,0,0,0,0,0,28.61,-80.6,9.792,31.101,0,0,0,2.612,0.808,0.709,0.002,NaN,969.765,NaN,0.013,5.762e5,562.447,0.033,0.538,0.581,0.487,0.001,0.051,NaN,NaN,NaN,NaN,NaN,NaN,NaN,NaN,4.918e-4,0.077,0.005,90,0,2.317,15,1013.246,340.389,0.01,0.052
0.03,0.086,5.929,208.807,5.929,208.807,0,0,0,0,0,0,28.61,-80.6,9.792,21.445,0,0,0,2.611,0.807,0.708,0.002,NaN,969.551,NaN,0.019,8.181e5,570.855,0.074,0.504,0.642,0.453,0.001,0.051,NaN,NaN,NaN,NaN,NaN,NaN,NaN,NaN,7.591e-4,0.077,0.005,90,0,2.329,14.999,1013.24,340.389,0.01,0.058
0.04,0.156,8.049,212.109,8.049,212.109,0,0,0,0,0,0,28.61,-80.6,9.792,16.213,0,0,0,2.61,0.805,0.708,0.002,NaN,969.338,NaN,0.025,1.077e6,579.262,0.125,0.48,0.623,0.429,0.001,0.051,NaN,NaN,NaN,NaN,NaN,NaN,NaN,NaN,0.001,0.077,0.005,90,0,2.34,14.999,1013.232,340.388,0.01,0.063
0.05,0.247,10.203,215.411,10.203,215.411,0,0,0,0,0,0,28.61,-80.6,9.792,12.982,0,0,0,2.609,0.804,0.707,0.002,NaN,969.123,NaN,0.031,1.345e6,587.67,0.182,0.462,0.581,0.41,0.001,0.051,NaN,NaN,NaN,NaN,NaN,NaN,NaN,NaN,0.001,0.077,0.005,90,0,2.352,14.998,1013.221,340.388,0.01,0.068
0.06,0.358,12.346,218.68,12.346,218.68,0,0,0,0,0,0,28.61,-80.6,9.792,10.846,0,0,0,2.608,0.803,0.707,0.002,NaN,968.913,NaN,0.037,1.615e6,595.994,0.245,0.448,0.543,0.397,0.001,0.051,NaN,NaN,NaN,NaN,NaN,NaN,NaN,NaN,0.002,0.077,0.005,90,0,2.365,14.998,1013.208,340.387,0.01,0.075
0.068,0.465,14.141,221.629,14.141,221.629,0,0,0,0,0,0,28.61,-80.6,9.792,9.54,0,0,0,2.607,0.802,0.707,0.002,NaN,968.74,NaN,0.042,1.842e6,603.519,0.303,0.44,0.518,0.388,0.001,0.051,NaN,NaN,NaN,NaN,NaN,NaN,NaN,NaN,0.002,0.077,0.005,90,0,2.376,14.997,1013.195,340.387,0.008,0.079
0.075,0.57,15.726,224.13,15.726,224.13,0,0,0,0,0,0,28.61,-80.6,9.792,8.628,0,0,0,2.606,0.801,0.707,0.002,NaN,968.588,NaN,0.047,2.043e6,609.896,0.36,0.433,0.499,0.381,0.001,0.051,NaN,NaN,NaN,NaN,NaN,NaN,NaN,NaN,0.002,0.077,0.005,90,0,2.386,14.996,1013.183,340.387,0.007,0.089
0.081,0.675,17.165,226.344,17.165,226.344,0,0,0,0,0,0,28.61,-80.6,9.792,7.942,0,0,0,2.605,0.8,0.706,0.002,NaN,968.451,NaN,0.051,2.226e6,615.542,0.416,0.427,0.485,0.375,0.001,0.051,NaN,NaN,NaN,NaN,NaN,NaN,NaN,NaN,0.002,0.077,0.005,90,0,2.395,14.996,1013.171,340.386,0.006,0.096
0.087,0.779,18.496,228.353,18.496,228.353,0,0,0,0,0,0,28.61,-80.6,9.792,7.402,0,0,0,2.604,0.8,0.706,0.002,NaN,968.326,NaN,0.055,2.396e6,620.664,0.47,0.423,0.474,0.371,0.001,0.051,NaN,NaN,NaN,NaN,NaN,NaN,NaN,NaN,0.002,0.077,0.005,90,0,2.403,14.995,1013.159,340.386,0.006,0.103
0.093,0.882,19.74,230.205,19.74,230.205,0,0,0,0,0,0,28.61,-80.6,9.792,6.961,0,0,0,2.604,0.799,0.706,0.002,NaN,968.21,NaN,0.058,2.554e6,625.386,0.524,0.419,0.465,0.367,0.001,0.051,NaN,NaN,NaN,NaN,NaN,NaN,NaN,NaN,0.003,0.077,0.005,90,0,2.41,14.994,1013.147,340.385,0.005,0.107
0.098,0.985,20.915,231.931,20.915,231.931,0,0,0,0,0,0,28.61,-80.6,9.792,6.592,0,0,0,2.603,0.799,0.706,0.002,NaN,968.101,NaN,0.062,2.704e6,629.788,0.578,0.415,0.457,0.363,0.001,0.051,NaN,NaN,NaN,NaN,NaN,NaN,NaN,NaN,0.003,0.077,0.005,90,0,2.417,14.994,1013.134,340.385,0.005,0.114
0.102,1.088,22.032,233.554,22.032,233.554,0,0,0,0,0,0,28.61,-80.6,9.792,6.26,0,0,0,2.602,0.798,0.706,0.002,NaN,967.998,NaN,0.065,2.847e6,633.928,0.631,0.412,0.45,0.36,0.001,0.051,NaN,NaN,NaN,NaN,NaN,NaN,NaN,NaN,0.003,0.077,0.005,90,0,2.417,14.993,1013.122,340.385,0.005,0.118
0.11,1.252,23.72,235.533,23.72,235.534,-1.46e-5,0,1.46e-5,-180,0.004,0.581,28.61,-80.6,9.792,5.782,0,0.082,2.666e-5,2.602,0.797,0.705,0.002,1064.378,967.844,1.254,0.07,3.062e6,638.952,0.715,0.408,0.441,0.356,0.001,0.051,0.93,1.167,2.136e-4,0,0,0,0,9.057e-6,0.003,0.077,0.005,90,-0.009,2.406,14.992,1013.103,340.384,0.007,0.123
0.12,1.521,26.285,238.5,26.285,238.5,-9.285e-5,0,9.285e-5,-180,0.01,0.608,28.61,-80.6,9.792,5.171,0,0.215,-5.013e-5,2.6,0.796,0.705,0.002,1067.117,967.612,1.292,0.078,3.39e6,646.49,0.853,0.403,0.429,0.35,0.001,0.051,0.802,1.036,5.26e-5,0,0,0,0,5.056e-5,0.003,0.077,0.005,89.998,0.002,2.39,14.99,1013.072,340.383,0.011,0.127
0.136,1.977,30.202,242.945,30.202,242.945,-3.427e-4,0,3.427e-4,-180,0.021,0.633,28.61,-80.6,9.792,4.434,0,0.436,-1.017e-4,2.598,0.794,0.704,0.002,1070.756,967.264,1.344,0.089,3.891e6,657.795,1.086,0.395,0.415,0.343,0.001,0.051,0.656,0.882,2.626e-4,0,0,0,0,1.574e-4,0.004,0.077,0.005,89.993,0.006,2.366,14.987,1013.018,340.381,0.016,0.132
0.161,2.781,36.237,249.599,36.237,249.6,-0.001,0,0.001,180,0.036,0.65,28.61,-80.6,9.792,3.661,0,0.814,1.523e-5,2.596,0.791,0.704,0.002,1075.047,966.741,1.407,0.107,4.664e6,674.754,1.502,0.386,0.399,0.333,0.002,0.051,0.515,0.724,-4.869e-4,0,0,0,0,3.819e-4,0.005,0.077,0.005,89.978,0.005,2.369,14.982,1012.924,340.378,0.024,0.136
0.197,4.267,45.646,259.548,45.646,259.549,-0.003,9.836e-9,0.003,180,0.059,0.602,28.61,-80.6,9.792,2.929,0,1.516,1.719e-4,2.591,0.787,0.702,0.002,1079.715,965.954,1.477,0.134,5.871e6,700.192,2.285,0.375,0.383,0.321,0.002,0.052,0.391,0.577,-4.944e-5,0,0,0,0,8.368e-4,0.006,0.077,0.005,89.936,0.002,2.446,14.972,1012.75,340.372,0.036,0.14
0.247,6.752,53.714,160.308,53.714,160.308,-0.006,4.463e-8,0.006,180,0.088,0.389,28.61,-80.6,9.792,2.189,-3.338e-7,2.623,-2.452e-4,2.586,0.782,0.701,0.002,1084.989,965.063,1.557,0.158,6.895e6,442.986,3.062,0.367,0.372,0.313,0.002,0.052,0.277,0.429,4.93e-4,0,0,0,0,0.002,0.007,0.077,0.005,89.833,0.002,2.296,14.956,1012.458,340.362,0.05,0.145
0.297,9.624,61.144,148.568,61.144,148.568,-0.011,1.182e-7,0.011,179.999,0.098,0.041,28.61,-80.6,9.792,1.697,9.754e-7,3.74,-4.719e-4,2.582,0.777,0.7,0.002,1088.974,964.196,1.62,0.18,7.853e6,412.705,3.892,0.362,0.365,0.307,0.002,0.052,0.207,0.332,4.644e-4,0,0,0,0,0.003,0.008,0.077,0.005,89.674,0.004,2.258,14.937,1012.121,340.351,0.05,0.151
0.347,12.877,68.986,156.812,68.986,156.814,-0.016,3.98e-7,0.016,179.999,0.078,0.754,28.61,-80.6,9.792,1.305,-7.594e-7,4.85,-0.001,2.577,0.772,0.698,0.002,1092.508,963.327,1.678,0.203,8.857e6,434.183,4.871,0.357,0.359,0.302,0.003,0.053,0.154,0.254,-3.508e-4,0,0,0,0,0.004,0.009,0.077,0.005,89.459,0.006,2.302,14.916,1011.74,340.338,0.05,0.155
0.397,16.533,77.241,165.016,77.241,165.027,-0.018,1.15e-6,0.018,179.996,0.011,1.906,28.61,-80.6,9.792,0.737,-7.019e-6,5.803,-0.002,2.572,0.768,0.697,0.002,1097.963,962.454,1.76,0.227,9.912e6,455.661,6.011,0.353,0.354,0.296,0.003,0.053,0.083,0.141,1e-4,0,0,0,0,0.004,0.01,0.077,0.005,89.191,0.006,2.092,14.893,1011.311,340.324,0.05,0.16
0.447,20.611,85.904,173.164,85.904,173.195,-0.016,2.713e-6,0.016,179.99,0.121,3.252,28.61,-80.6,9.792,0.329,4.366e-6,6.394,-0.005,2.567,0.763,0.695,0.002,1102.442,961.579,1.829,0.253,1.102e7,477.139,7.345,0.349,0.349,0.292,0.004,0.054,0.036,0.061,2.795e-4,0,0,0,0,0.004,0.011,0.077,0.005,88.885,0.009,2.041,14.866,1010.833,340.308,0.05,0.165
0.497,25.133,94.974,181.248,94.974,181.311,-0.005,6.16e-6,0.005,179.927,0.326,4.8,28.61,-80.6,9.792,0.013,1.235e-6,-6.584,-0.153,2.563,0.758,0.694,0.002,1106.366,960.7,1.892,0.279,1.218e7,498.617,8.892,0.346,0.346,0.287,0.004,0.055,0.001,0.006,3.696e-4,0,0,0,0,-0.004,0.012,0.077,0.005,88.559,0.014,2.038,14.837,1010.302,340.29,0.05,0.17
0.547,30.119,104.446,189.258,104.448,189.368,0.018,1.334e-5,0.018,0.042,0.613,6.457,28.61,-80.6,9.792,0.263,1.971e-5,-6.287,-0.012,2.558,0.753,0.692,0.002,1104.535,959.817,1.879,0.307,1.339e7,520.095,10.67,0.344,0.344,0.283,0.005,0.056,0.029,0.056,-1.707e-4,0,0,0,0,-0.003,0.013,0.077,0.005,88.236,0.016,2.119,14.804,1009.718,340.27,0.05,0.177
0.597,35.588,114.317,197.191,114.322,197.357,0.058,2.656e-5,0.058,0.026,0.985,8.087,28.61,-80.6,9.792,0.415,-2.002e-6,-5.486,-0.005,2.553,0.749,0.691,0.002,1103.889,958.932,1.883,0.336,1.465e7,541.573,12.702,0.341,0.342,0.279,0.006,0.057,0.046,0.088,-4.666e-4,0,0,0,0,-0.002,0.015,0.077,0.005,87.94,0.017,2.294,14.769,1009.076,340.249,0.05,0.181
0.647,41.561,124.584,205.032,124.592,205.267,0.118,4.706e-5,0.118,0.023,1.441,9.813,28.61,-80.6,9.792,0.624,-1.929e-5,-4.041,0.004,2.548,0.744,0.69,0.002,1102.826,958.043,1.88,0.366,1.596e7,563.051,15.013,0.34,0.34,0.275,0.007,0.058,0.07,0.132,7.423e-5,0,0,0,0,-7.995e-4,0.016,0.077,0.005,87.7,0.016,2.196,14.73,1008.376,340.225,0.05,0.183
0.697,48.056,135.24,212.802,135.254,213.088,0.204,7.564e-5,0.204,0.021,1.975,11.048,28.61,-80.6,9.792,0.676,-5.706e-7,-1.855,-0.006,2.544,0.739,0.688,0.002,1103.445,957.151,1.9,0.398,1.732e7,584.529,17.622,0.339,0.339,0.271,0.008,0.059,0.076,0.145,5.814e-5,0,0,0,0,-1.429e-4,0.017,0.077,0.005,87.552,0.013,2.203,14.688,1007.614,340.2,0.05,0.188
0.747,55.095,146.284,220.507,146.306,220.807,0.317,1.113e-4,0.317,0.02,2.553,11.512,28.61,-80.6,9.792,0.585,3.628e-6,0.638,-0.007,2.539,0.735,0.687,0.002,1105.597,956.255,1.939,0.43,1.872e7,606.007,20.555,0.338,0.338,0.268,0.009,0.061,0.066,0.128,4.791e-4,0,0,0,0,1.444e-5,0.019,0.077,0.005,87.523,0.006,2.275,14.642,1006.788,340.172,0.05,0.193
0.797,62.674,156.879,211.536,156.91,211.794,0.458,1.493e-4,0.458,0.019,3.097,10.459,28.61,-80.6,9.792,0.415,1.467e-5,2.978,-0.007,2.534,0.73,0.685,0.002,1108.654,955.306,1.992,0.461,2.007e7,585.069,23.599,0.338,0.338,0.264,0.011,0.062,0.046,0.092,-4.99e-4,0,0,0,0,2.738e-4,0.02,0.077,0.005,87.617,-0.004,2.297,14.593,1005.899,340.142,0.05,0.197
0.847,70.732,165.423,170.535,165.46,170.695,0.623,1.83e-4,0.623,0.017,3.502,7.373,28.61,-80.6,9.792,0.146,1.292e-6,4.448,-0.044,2.529,0.725,0.684,0.002,1112.669,954.412,2.055,0.487,2.115e7,482.714,26.223,0.338,0.338,0.262,0.012,0.064,0.016,0.032,2.318e-4,0,0,0,0,5.493e-4,0.021,0.077,0.005,87.81,-0.015,2.416,14.54,1004.954,340.11,0.05,0.2
0.897,79.177,172.39,139.02,172.431,139.102,0.806,2.064e-4,0.806,0.015,3.775,4.785,28.61,-80.6,9.792,0.081,2.17e-5,-4.591,-0.074,2.526,0.721,0.683,0.002,1114.395,953.724,2.087,0.507,2.202e7,404.54,28.484,0.338,0.338,0.26,0.014,0.065,0.009,0.019,3.193e-4,0,0,0,0,-5.388e-4,0.022,0.077,0.005,88.042,-0.033,2.379,14.485,1003.964,340.077,0.05,0.203
0.947,87.937,177.996,111.846,178.04,111.883,0.999,2.126e-4,0.999,0.012,3.941,2.877,28.61,-80.6,9.792,0.212,3.526e-5,-3.595,-0.04,2.522,0.718,0.682,0.002,1113.835,953.057,2.088,0.524,2.272e7,337.268,30.382,0.339,0.339,0.258,0.015,0.066,0.023,0.049,4.537e-4,0,0,0,0,-3.099e-4,0.023,0.077,0.005,88.25,-0.046,2.172,14.428,1002.937,340.043,0.05,0.206
0.997,96.952,182.602,91.855,182.647,91.867,1.198,1.998e-4,1.198,0.01,4.031,1.476,28.61,-80.6,9.792,0.331,1.412e-6,-1.653,-0.028,2.52,0.715,0.681,0.002,1113.304,952.596,2.087,0.537,2.33e7,288.141,31.997,0.339,0.339,0.257,0.015,0.066,0.037,0.077,1.06e-4,0,0,0,0,-6.226e-5,0.023,0.077,0.005,88.384,-0.03,2.197,14.37,1001.879,340.007,0.05,0.21
1.047,106.178,186.453,76.79,186.498,76.797,1.401,1.773e-4,1.401,0.007,4.079,1.018,28.61,-80.6,9.792,0.318,-1e-5,0.794,-0.012,2.517,0.713,0.68,0.002,1114.119,952.134,2.104,0.549,2.377e7,251.332,33.375,0.339,0.34,0.256,0.016,0.067,0.035,0.074,8.57e-5,0,0,0,0,1.377e-5,0.024,0.077,0.005,88.402,0.009,2.165,14.31,1000.797,339.971,0.05,0.213
1.097,115.579,189.553,61.791,189.598,61.802,1.606,1.611e-4,1.606,0.006,4.121,1.162,28.61,-80.6,9.792,0.21,-1.793e-5,2.814,-0.037,2.515,0.711,0.68,0.002,1115.858,951.689,2.132,0.558,2.415e7,214.554,34.5,0.34,0.34,0.255,0.017,0.068,0.023,0.049,-2.492e-4,0,0,0,0,1.675e-4,0.024,0.077,0.005,88.305,0.046,2.178,14.249,999.695,339.934,0.05,0.216
1.147,125.117,191.967,48.114,192.013,48.149,1.813,1.637e-4,1.813,0.005,4.186,1.832,28.61,-80.6,9.792,0.006,-3.093e-5,3.542,-0.885,2.514,0.709,0.679,0.002,1118.605,951.401,2.171,0.565,2.444e7,181.019,35.385,0.34,0.34,0.255,0.017,0.068,6.406e-4,0.001,-5.07e-5,0,0,0,0,2.587e-4,0.025,0.077,0.005,88.133,0.053,2.072,14.187,998.576,339.896,0.05,0.218
1.197,134.759,193.743,35.383,193.79,35.458,2.025,1.886e-4,2.025,0.005,4.282,2.31,28.61,-80.6,9.792,0.158,1.891e-5,-2.985,-0.052,2.512,0.708,0.679,0.002,1117.226,951.113,2.157,0.57,2.464e7,149.669,36.044,0.341,0.341,0.254,0.018,0.068,0.017,0.037,2.753e-5,0,0,0,0,-1.803e-4,0.025,0.077,0.005,87.959,0.037,2.064,14.124,997.445,339.858,0.05,0.22
1.247,144.476,194.931,23.671,194.981,23.813,2.242,2.293e-4,2.242,0.006,4.398,2.596,28.61,-80.6,9.792,0.289,-5.371e-6,-1.084,-0.008,2.511,0.707,0.678,0.002,1116,950.909,2.144,0.574,2.478e7,120.702,36.483,0.341,0.341,0.254,0.018,0.069,0.032,0.069,4.846e-4,0,0,0,0,-2.352e-5,0.025,0.077,0.005,87.854,0.018,1.896,14.061,996.305,339.82,0.05,0.224
1.297,154.246,195.863,18.579,195.915,18.706,2.465,2.76e-4,2.465,0.006,4.517,2.169,28.61,-80.6,9.792,0.239,-4.784e-6,1.214,-0.007,2.511,0.706,0.678,0.002,1116.745,950.802,2.155,0.577,2.488e7,108.202,36.817,0.341,0.341,0.254,0.018,0.069,0.026,0.057,1.069e-4,0,0,0,0,2.917e-5,0.025,0.077,0.005,87.862,-0.004,1.973,13.997,995.16,339.781,0.05,0.227
1.347,164.058,196.604,14.782,196.658,14.846,2.693,3.185e-4,2.693,0.007,4.603,1.371,28.61,-80.6,9.792,0.11,-1.099e-5,2.715,-0.029,2.51,0.706,0.678,0.002,1118.33,950.695,2.177,0.579,2.495e7,98.842,37.074,0.341,0.341,0.254,0.019,0.069,0.012,0.026,-3.366e-4,0,0,0,0,1.449e-4,0.025,0.077,0.005,87.969,-0.019,1.999,13.934,994.009,339.743,0.05,0.231
1.397,173.902,197.156,11.013,197.21,11.022,2.924,3.509e-4,2.924,0.007,4.644,0.446,28.61,-80.6,9.792,0.045,1.801e-6,-2.966,-0.073,2.509,0.705,0.678,0.002,1119.189,950.588,2.19,0.581,2.5e7,89.482,37.26,0.341,0.341,0.253,0.019,0.069,0.005,0.011,4.95e-4,0,0,0,0,-1.719e-4,0.025,0.077,0.005,88.119,-0.029,2.002,13.87,992.854,339.704,0.05,0.234
1.447,183.769,197.519,7.262,197.574,7.268,3.157,3.709e-4,3.157,0.007,4.643,0.291,28.61,-80.6,9.792,0.164,-2.542e-5,-2.04,-0.004,2.509,0.704,0.678,0.002,1117.915,950.481,2.174,0.582,2.503e7,80.123,37.375,0.341,0.341,0.253,0.019,0.069,0.018,0.039,-4.218e-4,0,0,0,0,-8.106e-5,0.025,0.077,0.005,88.25,-0.025,1.977,13.806,991.697,339.665,0.05,0.238
1.497,193.649,197.696,3.528,197.75,3.604,3.388,3.812e-4,3.388,0.006,4.611,0.733,28.61,-80.6,9.792,0.228,5.579e-7,-0.32,-0.027,2.508,0.704,0.677,0.002,1117.242,950.374,2.167,0.582,2.503e7,70.763,37.417,0.341,0.341,0.253,0.019,0.069,0.025,0.055,-1.023e-4,0,0,0,0,-1.986e-6,0.025,0.077,0.005,88.31,-0.013,2.027,13.741,990.538,339.626,0.05,0.243
1.547,203.534,197.686,-0.191,197.739,0.629,3.617,3.862e-4,3.617,0.006,4.572,0.599,28.61,-80.6,9.792,0.179,-5.79e-6,1.507,-0.023,2.508,0.703,0.677,0.002,1117.784,950.267,2.176,0.582,2.501e7,61.403,37.378,0.341,0.341,0.253,0.019,0.069,0.02,0.043,2.069e-4,0,0,0,0,4.417e-5,0.025,0.077,0.005,88.275,0.008,2.002,13.677,989.379,339.587,0.05,0.247
1.597,213.413,197.491,-3.891,197.543,3.894,3.845,3.943e-4,3.845,0.006,4.55,0.151,28.61,-80.6,9.792,0.066,5.957e-7,2.56,-0.03,2.507,0.703,0.677,0.002,1119.03,950.16,2.193,0.582,2.497e7,52.043,37.266,0.341,0.341,0.253,0.019,0.069,0.007,0.015,-4.889e-4,0,0,0,0,1.277e-4,0.025,0.077,0.005,88.166,0.024,1.994,13.613,988.22,339.548,0.05,0.255
1.647,223.278,197.111,-7.573,197.164,7.587,4.073,4.113e-4,4.073,0.006,4.556,0.457,28.61,-80.6,9.792,0.086,-1.293e-5,-2.477,-0.013,2.507,0.702,0.677,0.002,1118.737,950.053,2.191,0.581,2.49e7,42.683,37.083,0.341,0.341,0.254,0.019,0.069,0.009,0.021,-1.465e-4,0,0,0,0,-1.2e-4,0.025,0.077,0.005,88.033,0.024,1.9,13.549,987.063,339.509,0.05,0.258
1.697,233.12,196.548,-11.22,196.601,11.242,4.301,4.365e-4,4.301,0.006,4.585,0.709,28.61,-80.6,9.791,0.166,5.139e-6,-1.344,-0.017,2.506,0.702,0.677,0.002,1117.726,949.946,2.179,0.579,2.481e7,33.323,36.833,0.341,0.341,0.254,0.019,0.069,0.018,0.039,2.372e-4,0,0,0,0,-3.551e-5,0.025,0.077,0.005,87.934,0.016,1.921,13.485,985.909,339.471,0.05,0.261
1.747,242.928,195.803,-14.828,195.858,14.842,4.531,4.673e-4,4.531,0.006,4.617,0.64,28.61,-80.6,9.791,0.18,-9.178e-6,0.135,0.004,2.506,0.701,0.677,0.002,1117.42,949.838,2.176,0.577,2.47e7,23.963,36.512,0.341,0.341,0.254,0.018,0.069,0.02,0.043,-2.356e-4,0,0,0,0,3.615e-7,0.025,0.077,0.005,87.905,0.006,1.921,13.421,984.759,339.432,0.05,0.263
1.797,252.695,194.879,-18.4,194.935,18.403,4.763,4.994e-4,4.763,0.006,4.64,0.337,28.61,-80.6,9.791,0.144,-4.251e-6,1.512,-0.014,2.505,0.701,0.676,0.002,1117.649,949.731,2.181,0.575,2.456e7,14.603,36.12,0.341,0.341,0.254,0.018,0.069,0.016,0.035,3.258e-4,0,0,0,0,4.577e-5,0.025,0.077,0.005,87.95,-0.002,1.843,13.357,983.613,339.394,0.05,0.265
1.847,262.412,193.778,-21.936,193.833,21.938,4.995,5.299e-4,4.995,0.006,4.638,0.296,28.61,-80.6,9.791,0.031,-1.11e-5,2.275,-0.018,2.505,0.7,0.676,0.002,1118.721,949.624,2.196,0.571,2.441e7,5.244,35.663,0.341,0.341,0.255,0.018,0.068,0.003,0.007,4.208e-4,0,0,0,0,1.047e-4,0.025,0.077,0.005,88.051,-0.004,1.858,13.294,982.473,339.355,0.05,0.267
1.85,262.995,193.706,-23.902,193.761,23.906,5.009,5.317e-4,5.009,0.006,4.636,0.408,28.61,-80.6,9.791,0.021,0,2.331,-0.035,2.505,0.7,0.676,0.002,1118.825,949.617,2.198,0.571,2.44e7,0.282,35.633,0.341,0.341,0.255,0.018,0.068,0.002,0.005,-5.784e-5,0,0,0,0,1.101e-4,0.025,0.077,0.005,88.058,-0.004,1.859,13.291,982.405,339.353,0.003,0.27
1.855,263.87,193.597,-23.995,193.653,24,5.03,5.343e-4,5.03,0.006,4.634,0.476,28.61,-80.6,9.791,0.006,0,2.337,-0.116,2.505,0.7,0.676,0.002,1118.975,949.617,2.199,0.571,2.438e7,0,35.589,0.341,0.341,0.255,0.018,0.068,6.748e-4,0.001,6.082e-6,0,0,0,0,1.108e-4,0.025,0.077,0.005,88.069,-0.004,1.872,13.285,982.303,339.35,0.005,0.28
1.861,265.181,193.435,-23.965,193.49,23.972,5.061,5.382e-4,5.061,0.006,4.631,0.57,28.61,-80.6,9.791,0.016,0,-2.332,-0.044,2.505,0.7,0.676,0.002,1118.833,949.617,2.198,0.57,2.436e7,0,35.523,0.341,0.341,0.255,0.018,0.068,0.002,0.004,1.6e-4,0,0,0,0,-1.105e-4,0.025,0.077,0.005,88.085,-0.004,1.891,13.276,982.149,339.344,0.007,0.282
1.871,267.145,193.191,-23.921,193.247,23.932,5.108,5.439e-4,5.108,0.006,4.624,0.71,28.61,-80.6,9.791,0.048,-8.452e-7,-2.28,-0.012,2.505,0.7,0.676,0.002,1118.415,949.617,2.192,0.57,2.432e7,0,35.425,0.341,0.341,0.255,0.018,0.068,0.005,0.012,-4.499e-4,0,0,0,0,-1.058e-4,0.025,0.077,0.005,88.108,-0.004,1.92,13.264,981.918,339.337,0.01,0.284
1.887,270.087,192.827,-23.856,192.882,23.874,5.179,5.523e-4,5.179,0.006,4.612,0.909,28.61,-80.6,9.791,0.095,7.199e-7,-2.102,-0.009,2.505,0.7,0.676,0.002,1117.82,949.617,2.184,0.569,2.427e7,0,35.278,0.341,0.341,0.255,0.018,0.068,0.01,0.022,-1.192e-4,0,0,0,0,-9.029e-5,0.025,0.077,0.005,88.142,-0.004,1.963,13.244,981.573,339.325,0.015,0.287
1.91,274.489,192.283,-23.762,192.338,23.79,5.284,5.645e-4,5.284,0.006,4.588,1.147,28.61,-80.6,9.791,0.151,-2.601e-6,-1.645,3.538e-4,2.505,0.7,0.676,0.002,1117.088,949.617,2.175,0.567,2.42e7,0,35.059,0.341,0.341,0.255,0.018,0.068,0.017,0.036,2.482e-4,0,0,0,0,-5.563e-5,0.025,0.077,0.005,88.185,-0.003,2.013,13.216,981.057,339.308,0.023,0.291
1.944,281.069,191.47,-23.626,191.524,23.664,5.44,5.819e-4,5.44,0.006,4.545,1.343,28.61,-80.6,9.791,0.198,2.178e-6,-0.677,-0.006,2.505,0.7,0.676,0.002,1116.408,949.617,2.166,0.565,2.408e7,0,34.734,0.341,0.341,0.255,0.017,0.068,0.022,0.047,1.788e-4,0,0,0,0,-9.49e-6,0.025,0.077,0.005,88.225,-0.002,2.054,13.173,980.285,339.282,0.034,0.294
1.994,290.613,190.294,-23.441,190.347,23.472,5.666,6.064e-4,5.666,0.006,4.479,1.206,28.61,-80.6,9.791,0.172,-2.536e-6,0.809,0.004,2.505,0.7,0.676,0.002,1116.488,949.617,2.167,0.561,2.391e7,0,34.261,0.341,0.341,0.256,0.017,0.068,0.019,0.041,4.568e-4,0,0,0,0,1.374e-5,0.024,0.077,0.005,88.22,0.003,2.012,13.111,979.166,339.244,0.05,0.297
2.044,300.099,189.126,-23.267,189.178,23.281,5.889,6.31e-4,5.889,0.006,4.428,0.809,28.61,-80.6,9.791,0.081,-1.14e-5,1.831,-3.964e-4,2.505,0.7,0.676,0.002,1117.292,949.617,2.178,0.558,2.375e7,0,33.795,0.34,0.34,0.256,0.017,0.068,0.009,0.019,-4.287e-4,0,0,0,0,7.122e-5,0.024,0.077,0.005,88.148,0.003,1.948,13.049,978.053,339.207,0.05,0.3
2.094,309.526,187.967,-23.097,188.019,23.101,6.109,6.55e-4,6.109,0.006,4.398,0.441,28.61,-80.6,9.791,0.009,1.438e-6,-2.074,0.097,2.505,0.7,0.676,0.002,1117.903,949.617,2.186,0.555,2.359e7,0,33.339,0.34,0.34,0.256,0.017,0.067,9.3e-4,0.002,-1.355e-4,0,0,0,0,-9.254e-5,0.024,0.077,0.005,88.046,-0.011,1.979,12.988,976.948,339.17,0.05,0.304
2.144,318.895,186.816,-22.93,186.868,22.931,6.329,6.745e-4,6.329,0.006,4.385,0.113,28.61,-80.6,9.791,0.091,3.359e-6,-1.711,0.012,2.505,0.7,0.676,0.002,1116.768,949.617,2.171,0.551,2.342e7,0,32.893,0.34,0.34,0.257,0.016,0.067,0.01,0.021,-2.845e-4,0,0,0,0,-6.377e-5,0.024,0.077,0.005,87.948,-0.021,2.004,12.927,975.849,339.133,0.05,0.306
2.194,328.208,185.674,-22.757,185.726,22.757,6.548,6.871e-4,6.548,0.006,4.382,0.08,28.61,-80.6,9.791,0.102,-2.445e-6,-0.958,0.023,2.505,0.7,0.676,0.002,1116.441,949.617,2.167,0.548,2.327e7,0,32.454,0.34,0.34,0.257,0.016,0.067,0.011,0.025,3.385e-4,0,0,0,0,-2.023e-5,0.024,0.077,0.005,87.881,-0.012,2.152,12.867,974.757,339.096,0.05,0.309
2.244,337.463,184.54,-22.592,184.592,22.592,6.767,6.954e-4,6.767,0.006,4.383,0.128,28.61,-80.6,9.791,0.153,3.636e-6,-0.042,0.004,2.505,0.7,0.676,0.002,1115.673,949.617,2.157,0.545,2.311e7,0,32.021,0.34,0.34,0.257,0.016,0.067,0.017,0.036,3.046e-5,0,0,0,0,-3.874e-8,0.024,0.077,0.005,87.856,0.005,2.024,12.806,973.671,339.06,0.05,0.312
2.294,346.662,183.415,-22.418,183.468,22.419,6.986,7.061e-4,6.986,0.006,4.389,0.072,28.61,-80.6,9.791,0.138,6.078e-6,1.083,0.004,2.505,0.7,0.676,0.002,1115.642,949.617,2.156,0.541,2.295e7,0,31.593,0.34,0.34,0.258,0.016,0.067,0.015,0.032,-5.237e-5,0,0,0,0,2.65e-5,0.023,0.077,0.005,87.884,0.016,1.94,12.747,972.592,339.023,0.05,0.315
2.344,355.805,182.299,-22.231,182.352,22.236,7.206,7.225e-4,7.206,0.006,4.38,0.484,28.61,-80.6,9.791,0.004,1.348e-5,-1.582,0.07,2.505,0.7,0.676,0.002,1116.962,949.617,2.173,0.538,2.279e7,0,31.175,0.34,0.34,0.258,0.016,0.066,4.408e-4,7.403e-4,-2.548e-4,0,0,0,0,-5.723e-5,0.023,0.077,0.005,87.956,0.018,2.147,12.687,971.52,338.987,0.05,0.317
2.394,364.892,181.192,-22.058,181.244,22.07,7.424,7.438e-4,7.424,0.006,4.348,0.712,28.61,-80.6,9.791,0.068,-6.643e-6,-1.289,0.022,2.505,0.7,0.676,0.002,1116.054,949.617,2.162,0.535,2.264e7,0,30.763,0.34,0.34,0.258,0.015,0.066,0.007,0.016,-3.396e-4,0,0,0,0,-3.842e-5,0.023,0.077,0.005,88.031,0.011,2.104,12.628,970.454,338.952,0.05,0.32
2.444,373.924,180.093,-21.888,180.145,21.91,7.64,7.68e-4,7.64,0.006,4.305,0.981,28.61,-80.6,9.791,0.141,1.351e-6,-0.563,4.859e-4,2.505,0.7,0.676,0.002,1115.051,949.617,2.148,0.532,2.248e7,0,30.359,0.34,0.34,0.259,0.015,0.066,0.015,0.033,-1.276e-4,0,0,0,0,-7.437e-6,0.023,0.077,0.005,88.079,0.004,2.186,12.569,969.395,338.916,0.05,0.322
2.494,382.901,179.003,-21.731,179.053,21.75,7.854,7.928e-4,7.854,0.006,4.257,0.904,28.61,-80.6,9.791,0.125,4.438e-6,0.393,-0.006,2.505,0.7,0.676,0.002,1115.051,949.617,2.148,0.529,2.233e7,0,29.959,0.34,0.34,0.259,0.015,0.066,0.014,0.03,2.197e-4,0,0,0,0,3.659e-6,0.023,0.077,0.005,88.082,0.005,2.13,12.511,968.342,338.881,0.05,0.324
2.544,391.824,177.92,-21.581,177.97,21.591,8.066,8.185e-4,8.066,0.006,4.218,0.641,28.61,-80.6,9.791,0.057,1.963e-6,0.999,0.008,2.505,0.7,0.676,0.002,1115.632,949.617,2.156,0.525,2.218e7,0,29.563,0.34,0.34,0.259,0.015,0.066,0.006,0.013,-3.918e-4,0,0,0,0,2.397e-5,0.023,0.077,0.005,88.044,0.006,2.032,12.453,967.296,338.846,0.05,0.325
2.594,400.693,176.845,-21.434,176.894,21.438,8.276,8.452e-4,8.276,0.006,4.192,0.409,28.61,-80.6,9.791,0.006,-1.16e-6,-1.182,0.058,2.505,0.7,0.676,0.002,1116.036,949.617,2.161,0.522,2.203e7,0,29.176,0.339,0.339,0.259,0.014,0.066,6.635e-4,0.001,-3.08e-4,0,0,0,0,-3.396e-5,0.023,0.077,0.005,87.987,-7.172e-4,1.999,12.395,966.255,338.811,0.05,0.327
2.644,409.509,175.776,-21.29,175.826,21.291,8.485,8.707e-4,8.485,0.006,4.177,0.209,28.61,-80.6,9.791,0.062,3.893e-7,-0.952,0.006,2.505,0.7,0.676,0.002,1115.236,949.617,2.151,0.519,2.188e7,0,28.795,0.339,0.339,0.26,0.014,0.065,0.007,0.015,-3.428e-4,0,0,0,0,-2.229e-5,0.023,0.077,0.005,87.932,-0.006,1.973,12.338,965.221,338.776,0.05,0.329
2.694,418.271,174.716,-21.143,174.765,21.143,8.694,8.94e-4,8.694,0.006,4.169,0.14,28.61,-80.6,9.791,0.082,5.25e-6,-0.477,-0.003,2.505,0.7,0.676,0.002,1114.846,949.617,2.146,0.516,2.173e7,0,28.42,0.339,0.339,0.26,0.014,0.065,0.009,0.02,1.937e-4,0,0,0,0,-5.653e-6,0.022,0.077,0.005,87.896,-0.001,1.994,12.281,964.194,338.741,0.05,0.331
2.744,426.981,173.662,-20.995,173.712,20.995,8.902,9.166e-4,8.902,0.006,4.162,0.145,28.61,-80.6,9.791,0.081,2.83e-6,0.043,0.002,2.505,0.7,0.676,0.002,1114.699,949.617,2.144,0.513,2.159e7,0,28.051,0.339,0.339,0.26,0.014,0.065,0.009,0.019,-1.608e-5,0,0,0,0,4.626e-8,0.022,0.077,0.005,87.886,0.002,1.999,12.225,963.172,338.707,0.05,0.334
2.794,435.638,172.616,-20.848,172.666,20.848,9.11,9.392e-4,9.11,0.006,4.154,0.19,28.61,-80.6,9.791,0.067,2.875e-6,0.531,-0.004,2.505,0.7,0.676,0.002,1114.692,949.617,2.144,0.51,2.144e7,0,27.687,0.339,0.339,0.261,0.014,0.065,0.007,0.016,2.927e-4,0,0,0,0,7.194e-6,0.022,0.077,0.005,87.902,0.004,1.968,12.168,962.157,338.673,0.05,0.337
2.844,444.242,171.577,-20.7,171.627,20.702,9.318,9.619e-4,9.318,0.006,4.142,0.316,28.61,-80.6,9.791,0.028,-1.77e-6,0.823,-0.011,2.505,0.7,0.676,0.002,1114.969,949.617,2.147,0.507,2.13e7,0,27.328,0.339,0.339,0.261,0.013,0.065,0.003,0.006,4.894e-4,0,0,0,0,1.746e-5,0.022,0.077,0.005,87.937,-0.003,1.956,12.112,961.148,338.639,0.05,0.339
2.894,452.795,170.546,-20.551,170.596,20.558,9.524,9.832e-4,9.524,0.006,4.12,0.54,28.61,-80.6,9.791,0.04,2.08e-6,-0.792,-0.014,2.505,0.7,0.676,0.002,1114.683,949.617,2.144,0.504,2.116e7,0,26.977,0.339,0.339,0.261,0.013,0.065,0.004,0.009,-4.151e-4,0,0,0,0,-1.64e-5,0.022,0.077,0.005,87.979,-0.008,2.022,12.057,960.145,338.605,0.05,0.341
2.944,461.297,169.522,-20.41,169.572,20.419,9.73,0.001,9.73,0.006,4.091,0.594,28.61,-80.6,9.791,0.06,3.493e-7,-0.472,-0.002,2.505,0.7,0.676,0.002,1114.313,949.617,2.139,0.501,2.102e7,0,26.629,0.339,0.339,0.262,0.013,0.064,0.006,0.014,1.142e-4,0,0,0,0,-5.895e-6,0.022,0.077,0.005,88.011,-0.007,1.977,12.002,959.148,338.572,0.05,0.343
2.994,469.748,168.505,-20.267,168.554,20.283,9.933,0.001,9.933,0.006,4.056,0.805,28.61,-80.6,9.791,0.125,-4.213e-7,0.068,-0.001,2.505,0.7,0.676,0.002,1113.448,949.617,2.128,0.498,2.088e7,0,26.289,0.339,0.339,0.262,0.013,0.064,0.014,0.028,-5.157e-5,0,0,0,0,1.237e-7,0.022,0.077,0.005,88.022,-0.003,2.136,11.947,958.156,338.539,0.05,0.345
3.044,478.148,167.495,-20.134,167.543,20.148,10.135,0.001,10.135,0.006,4.016,0.75,28.61,-80.6,9.791,0.111,5.537e-7,0.781,0.001,2.505,0.7,0.676,0.002,1113.462,949.617,2.128,0.495,2.074e7,0,25.952,0.339,0.339,0.262,0.013,0.064,0.012,0.026,-1.332e-4,0,0,0,0,1.651e-5,0.021,0.077,0.005,88,0.001,2.158,11.892,957.171,338.505,0.05,0.346
3.094,486.497,166.492,-20.004,166.539,20.015,10.335,0.001,10.335,0.006,3.98,0.687,28.61,-80.6,9.791,0.092,7.603e-6,1.348,0.005,2.505,0.7,0.676,0.002,1113.53,949.617,2.129,0.492,2.06e7,0,25.62,0.339,0.339,0.263,0.013,0.064,0.01,0.021,-2.85e-5,0,0,0,0,4.982e-5,0.021,0.077,0.005,87.945,0.003,2.26,11.838,956.192,338.473,0.05,0.349
3.144,494.797,165.495,-19.879,165.542,19.885,10.533,0.001,10.533,0.006,3.95,0.512,28.61,-80.6,9.791,0.036,0,1.733,0.023,2.505,0.7,0.676,0.002,1114.007,949.617,2.135,0.489,2.046e7,0,25.293,0.339,0.339,0.263,0.012,0.064,0.004,0.008,2.774e-4,0,0,0,0,8.325e-5,0.021,0.077,0.005,87.866,-0.003,2.317,11.784,955.219,338.44,0.05,0.351
3.194,503.047,164.504,-19.758,164.551,19.76,10.73,0.001,10.73,0.006,3.93,0.309,28.61,-80.6,9.791,0.031,-7.577e-6,-1.745,0.037,2.505,0.7,0.676,0.002,1113.921,949.617,2.134,0.486,2.033e7,0,24.971,0.339,0.339,0.263,0.012,0.064,0.003,0.007,5.766e-5,0,0,0,0,-8.544e-5,0.021,0.077,0.005,87.777,-0.01,2.361,11.73,954.268,338.407,0.05,0.353
3.244,511.248,163.519,-19.637,163.566,19.638,10.926,0.001,10.926,0.006,3.918,0.178,28.61,-80.6,9.791,0.076,3.865e-6,-1.439,0.005,2.505,0.7,0.676,0.002,1113.284,949.617,2.126,0.484,2.019e7,0,24.655,0.339,0.339,0.264,0.012,0.063,0.008,0.017,-2.212e-4,0,0,0,0,-5.884e-5,0.021,0.077,0.005,87.697,-0.014,2.437,11.677,953.352,338.375,0.05,0.355
3.294,519.399,162.54,-19.518,162.587,19.518,11.122,0.001,11.122,0.006,3.913,0.055,28.61,-80.6,9.791,0.118,0,-0.907,0.002,2.505,0.7,0.676,0.002,1112.689,949.617,2.118,0.481,2.006e7,0,24.343,0.339,0.339,0.264,0.012,0.063,0.013,0.027,-2.94e-4,0,0,0,0,-2.366e-5,0.021,0.077,0.005,87.638,-0.017,2.454,11.624,952.441,338.343,0.05,0.357
3.344,527.502,161.567,-19.403,161.615,19.404,11.318,0.001,11.318,0.006,3.915,0.15,28.61,-80.6,9.791,0.185,3.204e-6,-0.106,-0.01,2.505,0.7,0.676,0.002,1111.827,949.617,2.107,0.478,1.993e7,0,24.035,0.339,0.339,0.264,0.012,0.063,0.02,0.043,-4.886e-4,0,0,0,0,-3.26e-7,0.021,0.077,0.005,87.612,-0.019,2.296,11.571,951.536,338.311,0.05,0.359
3.394,535.556,160.6,-19.281,160.648,19.282,11.514,0.001,11.514,0.006,3.924,0.148,28.61,-80.6,9.791,0.184,-2.159e-6,0.914,-0.006,2.505,0.7,0.676,0.002,1111.705,949.617,2.105,0.475,1.979e7,0,23.73,0.339,0.339,0.264,0.012,0.063,0.02,0.042,4.673e-4,0,0,0,0,2.458e-5,0.021,0.077,0.005,87.633,-0.018,2.196,11.519,950.636,338.279,0.05,0.361
3.444,543.562,159.639,-19.147,159.687,19.148,11.71,0.001,11.71,0.005,3.924,0.168,28.61,-80.6,9.791,0.077,0,1.605,-0.004,2.505,0.7,0.676,0.002,1112.745,949.617,2.119,0.472,1.966e7,0,23.429,0.339,0.339,0.265,0.012,0.063,0.008,0.018,5.55e-5,0,0,0,0,7.682e-5,0.02,0.077,0.005,87.699,-0.013,2.281,11.467,949.741,338.248,0.05,0.363
3.494,551.52,158.685,-19.019,158.733,19.024,11.906,0.001,11.906,0.005,3.908,0.433,28.61,-80.6,9.791,0.019,1.139e-5,-1.75,-0.031,2.505,0.7,0.676,0.002,1113.252,949.617,2.125,0.47,1.954e7,0,23.134,0.339,0.339,0.265,0.011,0.063,0.002,0.005,7.63e-5,0,0,0,0,-9.233e-5,0.02,0.077,0.005,87.786,-0.003,2.285,11.415,948.852,338.216,0.05,0.366
3.544,559.43,157.737,-18.893,157.785,18.906,12.101,0.001,12.101,0.005,3.88,0.695,28.61,-80.6,9.79,0.115,4.451e-6,-1.415,-0.001,2.505,0.7,0.676,0.002,1112.065,949.617,2.11,0.467,1.941e7,0,22.844,0.339,0.339,0.265,0.011,0.063,0.012,0.027,-4.12e-4,0,0,0,0,-6.109e-5,0.02,0.077,0.005,87.867,0.003,2.32,11.364,947.968,338.185,0.05,0.368
3.594,567.294,156.796,-18.773,156.843,18.793,12.294,0.001,12.294,0.005,3.839,0.883,28.61,-80.6,9.79,0.185,4.172e-6,-0.643,-0.006,2.505,0.7,0.676,0.002,1111.183,949.617,2.098,0.464,1.928e7,0,22.558,0.339,0.339,0.266,0.011,0.062,0.02,0.043,2.591e-4,0,0,0,0,-1.275e-5,0.02,0.077,0.005,87.919,0.005,2.37,11.313,947.09,338.154,0.05,0.369
3.644,575.11,155.86,-18.659,155.906,18.681,12.484,0.001,12.484,0.005,3.794,0.918,28.61,-80.6,9.79,0.201,3.962e-6,0.345,0.002,2.505,0.7,0.676,0.002,1110.885,949.617,2.094,0.461,1.915e7,0,22.276,0.339,0.339,0.266,0.011,0.062,0.022,0.046,-3.401e-5,0,0,0,0,3.714e-6,0.02,0.077,0.005,87.926,0.009,2.401,11.262,946.217,338.124,0.05,0.372
3.694,582.88,154.93,-18.553,154.975,18.567,12.673,0.001,12.673,0.005,3.752,0.726,28.61,-80.6,9.79,0.136,3.412e-6,1.177,-0.008,2.505,0.7,0.676,0.002,1111.462,949.617,2.102,0.459,1.903e7,0,21.994,0.339,0.339,0.266,0.011,0.062,0.015,0.031,-2.83e-4,0,0,0,0,4.384e-5,0.02,0.077,0.005,87.886,0.013,2.334,11.211,945.349,338.093,0.05,0.374
3.744,590.603,154.005,-18.451,154.05,18.457,12.86,0.001,12.86,0.005,3.722,0.465,28.61,-80.6,9.79,0.042,0,1.6,-0.029,2.505,0.7,0.676,0.002,1112.373,949.617,2.114,0.456,1.89e7,0,21.717,0.339,0.339,0.267,0.011,0.062,0.005,0.009,2.357e-4,0,0,0,0,8.199e-5,0.02,0.077,0.005,87.814,0.015,2.266,11.161,944.486,338.063,0.05,0.375
3.794,598.28,153.085,-18.35,153.129,18.352,13.045,0.001,13.045,0.005,3.704,0.272,28.61,-80.6,9.79,0.032,7.492e-6,-1.616,-0.039,2.505,0.7,0.676,0.002,1112.363,949.617,2.114,0.453,1.878e7,0,21.445,0.339,0.339,0.267,0.011,0.062,0.003,0.008,-2.144e-4,0,0,0,0,-8.467e-5,0.02,0.077,0.005,87.731,0.015,2.272,11.111,943.628,338.032,0.05,0.377
3.844,605.912,152.17,-18.253,152.214,18.253,13.23,0.001,13.23,0.005,3.697,0.025,28.61,-80.6,9.79,0.126,3.422e-6,-1.266,-0.008,2.505,0.7,0.676,0.002,1111.216,949.617,2.099,0.451,1.865e7,0,21.176,0.339,0.339,0.267,0.01,0.062,0.014,0.028,6.702e-5,0,0,0,0,-5.258e-5,0.019,0.077,0.005,87.657,0.012,2.188,11.062,942.775,338.002,0.05,0.379
3.894,613.497,151.259,-18.15,151.305,18.15,13.415,0.001,13.415,0.005,3.698,0.039,28.61,-80.6,9.79,0.153,6.163e-6,-0.598,-0.014,2.505,0.7,0.676,0.002,1110.813,949.617,2.093,0.448,1.853e7,0,20.912,0.339,0.339,0.268,0.01,0.062,0.017,0.034,2.701e-4,0,0,0,0,-1.186e-5,0.019,0.077,0.005,87.61,0.007,2.208,11.012,941.928,337.972,0.05,0.384
3.944,621.038,150.354,-18.05,150.4,18.051,13.6,0.001,13.6,0.005,3.703,0.141,28.61,-80.6,9.79,0.191,2.496e-6,0.185,-0.017,2.505,0.7,0.676,0.002,1110.282,949.617,2.087,0.445,1.841e7,0,20.651,0.339,0.34,0.268,0.01,0.061,0.021,0.043,-3.859e-4,0,0,0,0,1.153e-6,0.019,0.077,0.005,87.6,-0.005,2.093,10.963,941.085,337.943,0.05,0.386
3.994,628.533,149.455,-17.939,149.501,17.939,13.785,0.001,13.785,0.005,3.706,0.036,28.61,-80.6,9.79,0.123,-2.064e-6,0.926,-0.011,2.505,0.7,0.676,0.002,1110.898,949.617,2.095,0.443,1.829e7,0,20.393,0.34,0.34,0.268,0.01,0.061,0.013,0.027,-4.373e-5,0,0,0,0,2.918e-5,0.019,0.077,0.005,87.629,-0.016,2.16,10.915,940.248,337.913,0.05,0.389
4.044,635.983,148.56,-17.829,148.606,17.831,13.971,0.001,13.971,0.005,3.699,0.242,28.61,-80.6,9.79,0.04,3.311e-6,1.278,-0.028,2.505,0.7,0.676,0.002,1111.693,949.617,2.105,0.44,1.817e7,0,20.138,0.34,0.34,0.268,0.01,0.061,0.004,0.009,3.017e-4,0,0,0,0,5.623e-5,0.019,0.077,0.005,87.686,-0.021,2.203,10.866,939.416,337.884,0.05,0.391
4.094,643.389,147.672,-17.722,147.718,17.727,14.155,0.001,14.155,0.005,3.683,0.394,28.61,-80.6,9.79,0.026,5.308e-7,-1.31,-0.044,2.505,0.7,0.676,0.002,1111.74,949.617,2.105,0.437,1.805e7,0,19.887,0.34,0.34,0.269,0.01,0.061,0.003,0.006,2.968e-4,0,0,0,0,-5.979e-5,0.019,0.077,0.005,87.752,-0.024,2.182,10.818,938.588,337.855,0.05,0.394
4.144,650.75,146.788,-17.618,146.834,17.626,14.339,0.001,14.339,0.005,3.659,0.561,28.61,-80.6,9.79,0.097,6.838e-6,-1.033,-0.02,2.505,0.7,0.676,0.002,1110.846,949.617,2.094,0.435,1.793e7,0,19.64,0.34,0.34,0.269,0.01,0.061,0.011,0.022,3.716e-5,0,0,0,0,-3.764e-5,0.019,0.077,0.005,87.812,-0.022,2.201,10.77,937.766,337.826,0.05,0.397
4.194,658.068,145.91,-17.518,145.955,17.529,14.521,0.001,14.521,0.005,3.629,0.623,28.61,-80.6,9.79,0.128,2.246e-6,-0.548,-0.007,2.505,0.7,0.676,0.002,1110.409,949.617,2.088,0.432,1.782e7,0,19.396,0.34,0.34,0.269,0.01,0.061,0.014,0.029,-2.261e-4,0,0,0,0,-1.071e-5,0.019,0.077,0.005,87.853,-0.016,2.171,10.723,936.948,337.797,0.05,0.4
4.244,665.342,145.036,-17.421,145.081,17.432,14.702,0.001,14.702,0.004,3.597,0.635,28.61,-80.6,9.79,0.137,2.565e-6,0.006,-0.009,2.505,0.7,0.676,0.002,1110.208,949.617,2.086,0.43,1.77e7,0,19.154,0.34,0.34,0.27,0.009,0.061,0.015,0.031,3.482e-4,0,0,0,0,0,0.019,0.077,0.005,87.866,-0.006,2.154,10.675,936.136,337.768,0.05,0.401
4.294,672.572,144.168,-17.329,144.212,17.337,14.881,0.001,14.881,0.004,3.567,0.537,28.61,-80.6,9.79,0.099,1.657e-6,0.509,-0.007,2.505,0.7,0.676,0.002,1110.511,949.617,2.09,0.427,1.758e7,0,18.915,0.34,0.34,0.27,0.009,0.061,0.011,0.022,4.378e-4,0,0,0,0,9.474e-6,0.018,0.077,0.005,87.852,0.008,2.087,10.628,935.328,337.74,0.05,0.403
4.344,679.758,143.303,-17.239,143.347,17.244,15.058,0.001,15.058,0.004,3.544,0.41,28.61,-80.6,9.79,0.046,5.323e-6,0.801,-0.024,2.505,0.7,0.676,0.002,1110.975,949.617,2.096,0.425,1.747e7,0,18.679,0.34,0.34,0.27,0.009,0.06,0.005,0.01,-5.325e-5,0,0,0,0,2.376e-5,0.018,0.077,0.005,87.818,0.023,2.029,10.582,934.525,337.711,0.05,0.405
4.394,686.902,142.444,-17.15,142.487,17.153,15.235,0.001,15.235,0.004,3.526,0.312,28.61,-80.6,9.79,0.004,2.871e-6,0.838,-0.305,2.505,0.7,0.676,0.002,1111.333,949.617,2.1,0.422,1.735e7,0,18.446,0.34,0.34,0.271,0.009,0.06,4.041e-4,5.184e-4,1.204e-4,0,0,0,0,2.626e-5,0.018,0.077,0.005,87.775,0.034,2.016,10.535,933.727,337.683,0.05,0.41
4.444,694.003,141.588,-17.064,141.632,17.065,15.411,0.001,15.411,0.004,3.514,0.163,28.61,-80.6,9.79,0.062,0,-0.78,-0.009,2.505,0.7,0.676,0.002,1110.59,949.617,2.091,0.42,1.724e7,0,18.217,0.34,0.34,0.271,0.009,0.06,0.007,0.014,2.182e-4,0,0,0,0,-2.307e-5,0.018,0.077,0.005,87.732,0.039,1.937,10.489,932.933,337.655,0.05,0.413
4.494,701.061,140.737,-16.979,140.781,16.979,15.587,0.001,15.587,0.004,3.51,0.019,28.61,-80.6,9.79,0.126,1.584e-6,-0.413,-0.013,2.505,0.7,0.676,0.002,1109.8,949.617,2.08,0.417,1.712e7,0,17.99,0.34,0.34,0.271,0.009,0.06,0.014,0.029,-1.747e-4,0,0,0,0,-6.557e-6,0.018,0.077,0.005,87.701,0.035,1.827,10.443,932.145,337.627,0.05,0.416
4.544,708.077,139.891,-16.889,139.935,16.889,15.762,0.001,15.762,0.004,3.508,0.052,28.61,-80.6,9.79,0.112,1.251e-6,0.073,-0.013,2.505,0.7,0.676,0.002,1109.849,949.617,2.081,0.415,1.701e7,0,17.767,0.34,0.34,0.271,0.009,0.06,0.012,0.026,1.365e-4,0,0,0,0,2.084e-7,0.018,0.077,0.005,87.693,0.021,1.853,10.398,931.361,337.6,0.05,0.417
4.594,715.05,139.048,-16.798,139.093,16.798,15.938,0.001,15.938,0.004,3.504,0.123,28.61,-80.6,9.79,0.079,4.023e-6,0.427,-0.01,2.505,0.7,0.676,0.002,1110.103,949.617,2.084,0.412,1.69e7,0,17.546,0.34,0.34,0.272,0.009,0.06,0.009,0.018,-2.069e-4,0,0,0,0,7.16e-6,0.018,0.077,0.005,87.707,0.004,1.872,10.352,930.582,337.572,0.05,0.419
4.644,721.982,138.211,-16.705,138.255,16.707,16.113,0.001,16.113,0.004,3.495,0.261,28.61,-80.6,9.79,0.014,3.151e-6,0.62,-0.031,2.505,0.7,0.676,0.002,1110.714,949.617,2.092,0.41,1.679e7,0,17.329,0.34,0.34,0.272,0.009,0.06,0.002,0.003,1.055e-4,0,0,0,0,1.529e-5,0.018,0.077,0.005,87.734,-0.008,1.942,10.307,929.807,337.545,0.05,0.42
4.694,728.871,137.378,-16.613,137.422,16.619,16.287,0.001,16.287,0.004,3.477,0.439,28.61,-80.6,9.79,0.072,1.045e-6,-0.511,-0.001,2.505,0.7,0.676,0.002,1109.989,949.617,2.083,0.407,1.668e7,0,17.115,0.341,0.341,0.272,0.008,0.06,0.008,0.016,-2.567e-4,0,0,0,0,-1.051e-5,0.018,0.077,0.005,87.764,-0.016,2.064,10.262,929.038,337.518,0.05,0.422
4.744,735.719,136.549,-16.528,136.593,16.534,16.46,0.001,16.46,0.005,3.455,0.424,28.61,-80.6,9.79,0.069,2.568e-6,-0.224,-0.005,2.505,0.7,0.676,0.002,1109.929,949.617,2.082,0.405,1.657e7,0,16.902,0.341,0.341,0.273,0.008,0.06,0.007,0.015,2.254e-4,0,0,0,0,-2.043e-6,0.017,0.077,0.005,87.782,-0.02,1.999,10.218,928.273,337.491,0.05,0.423
4.794,742.526,135.725,-16.444,135.768,16.45,16.632,0.001,16.632,0.005,3.434,0.427,28.61,-80.6,9.79,0.072,2.067e-6,0.018,-0.008,2.505,0.7,0.676,0.002,1109.793,949.617,2.08,0.403,1.646e7,0,16.692,0.341,0.341,0.273,0.008,0.059,0.008,0.016,-2.091e-4,0,0,0,0,1.366e-8,0.017,0.077,0.005,87.787,-0.017,1.983,10.174,927.512,337.464,0.05,0.425
4.844,749.292,134.905,-16.363,134.948,16.368,16.803,0.001,16.803,0.005,3.413,0.382,28.61,-80.6,9.79,0.053,1.528e-6,0.247,-0.008,2.505,0.7,0.676,0.002,1109.908,949.617,2.082,0.4,1.635e7,0,16.485,0.341,0.341,0.273,0.008,0.059,0.006,0.012,4.851e-4,0,0,0,0,2.541e-6,0.017,0.077,0.005,87.78,-0.01,1.942,10.13,926.756,337.437,0.05,0.426
4.894,756.017,134.089,-16.286,134.132,16.288,16.974,0.001,16.974,0.005,3.397,0.249,28.61,-80.6,9.79,0.011,1.798e-6,-0.332,0.014,2.505,0.7,0.676,0.002,1110.273,949.617,2.086,0.398,1.625e7,0,16.279,0.341,0.341,0.274,0.008,0.059,0.001,0.002,-4.604e-4,0,0,0,0,-4.67e-6,0.017,0.077,0.005,87.764,0.001,1.809,10.086,926.005,337.411,0.05,0.43
4.944,762.701,133.276,-16.204,133.319,16.207,17.143,0.001,17.143,0.005,3.385,0.272,28.61,-80.6,9.79,0.001,2.508e-6,0.288,-0.076,2.505,0.7,0.676,0.002,1110.284,949.617,2.087,0.395,1.614e7,0,16.077,0.341,0.341,0.274,0.008,0.059,1.534e-4,3.375e-4,3.812e-4,0,0,0,0,3.536e-6,0.017,0.077,0.005,87.749,0.014,1.857,10.042,925.258,337.385,0.05,0.433
4.994,769.345,132.468,-16.12,132.511,16.125,17.312,0.001,17.312,0.005,3.368,0.398,28.61,-80.6,9.79,0.065,4.063e-6,0.413,-0.005,2.505,0.7,0.676,0.002,1109.499,949.617,2.076,0.393,1.603e7,0,15.879,0.341,0.341,0.274,0.008,0.059,0.007,0.015,-1.497e-4,0,0,0,0,7.387e-6,0.017,0.077,0.005,87.732,0.024,2.031,9.999,924.516,337.358,0.05,0.436
5.044,775.948,131.664,-16.042,131.707,16.047,17.48,0.001,17.48,0.005,3.348,0.376,28.61,-80.6,9.79,0.055,2.133e-6,0.637,-0.017,2.505,0.7,0.676,0.002,1109.519,949.617,2.077,0.391,1.593e7,0,15.682,0.341,0.341,0.274,0.008,0.059,0.006,0.012,4.613e-4,0,0,0,0,1.778e-5,0.017,0.077,0.005,87.706,0.029,2.054,9.956,923.778,337.332,0.05,0.439
5.094,782.511,130.864,-15.968,130.906,15.971,17.647,0.001,17.647,0.005,3.332,0.274,28.61,-80.6,9.79,0.003,4.52e-6,0.673,-0.265,2.505,0.7,0.676,0.002,1109.995,949.617,2.083,0.388,1.582e7,0,15.486,0.341,0.341,0.275,0.008,0.059,3.434e-4,9.44e-4,-2.14e-4,0,0,0,0,2.008e-5,0.017,0.077,0.005,87.671,0.033,1.996,9.914,923.045,337.307,0.05,0.442
5.144,789.034,130.067,-15.893,130.11,15.895,17.813,0.001,17.813,0.005,3.32,0.23,28.61,-80.6,9.79,0.02,3.284e-6,-0.691,-0.041,2.505,0.7,0.676,0.002,1109.722,949.617,2.079,0.386,1.572e7,0,15.294,0.341,0.341,0.275,0.008,0.059,0.002,0.004,2.944e-4,0,0,0,0,-2.14e-5,0.017,0.077,0.005,87.635,0.034,2.005,9.871,922.316,337.281,0.05,0.445
5.194,795.518,129.275,-15.816,129.317,15.818,17.979,0.001,17.979,0.005,3.307,0.279,28.61,-80.6,9.79,0.005,1.295e-6,0.649,-0.137,2.505,0.7,0.676,0.002,1109.799,949.617,2.08,0.384,1.561e7,0,15.105,0.342,0.342,0.275,0.008,0.059,5.552e-4,9.436e-4,2.317e-4,0,0,0,0,1.912e-5,0.017,0.077,0.005,87.601,0.034,2.12,9.829,921.592,337.255,0.05,0.447
5.244,801.962,128.486,-15.742,128.528,15.744,18.144,0.002,18.144,0.005,3.294,0.242,28.61,-80.6,9.79,0.015,0,-0.66,-0.038,2.505,0.7,0.676,0.002,1109.611,949.617,2.078,0.381,1.551e7,0,14.917,0.342,0.342,0.276,0.007,0.059,0.002,0.004,3.664e-4,0,0,0,0,-2.003e-5,0.016,0.077,0.005,87.568,0.029,2.131,9.787,920.872,337.23,0.05,0.449
5.294,808.366,127.701,-15.669,127.743,15.671,18.308,0.002,18.308,0.005,3.283,0.212,28.61,-80.6,9.79,0.031,8.31e-7,-0.581,-0.016,2.505,0.7,0.676,0.002,1109.343,949.617,2.074,0.379,1.541e7,0,14.731,0.342,0.342,0.276,0.007,0.058,0.003,0.007,-3.097e-4,0,0,0,0,-1.573e-5,0.016,0.077,0.005,87.536,0.017,2.141,9.746,920.156,337.205,0.05,0.45
5.344,814.732,126.919,-15.595,126.961,15.597,18.472,0.002,18.472,0.005,3.272,0.23,28.61,-80.6,9.79,0.022,4.105e-7,-0.489,-4.827e-4,2.505,0.7,0.676,0.002,1109.366,949.617,2.075,0.377,1.531e7,0,14.548,0.342,0.342,0.276,0.007,0.058,0.002,0.005,4.016e-4,0,0,0,0,-1.128e-5,0.016,0.077,0.005,87.51,0.002,2.2,9.704,919.445,337.18,0.05,0.452
5.394,821.058,126.141,-15.527,126.183,15.528,18.636,0.002,18.636,0.005,3.263,0.115,28.61,-80.6,9.79,0.085,1.179e-6,-0.341,-0.002,2.505,0.7,0.676,0.002,1108.602,949.617,2.065,0.374,1.521e7,0,14.366,0.342,0.342,0.277,0.007,0.058,0.009,0.018,-2.448e-4,0,0,0,0,-5.554e-6,0.016,0.077,0.005,87.488,-0.011,2.082,9.663,918.738,337.155,0.05,0.454
5.444,827.346,125.366,-15.461,125.409,15.461,18.799,0.002,18.799,0.005,3.261,0.021,28.61,-80.6,9.79,0.16,1.563e-6,0.039,-9.069e-4,2.505,0.7,0.676,0.002,1107.716,949.617,2.053,0.372,1.51e7,0,14.186,0.342,0.342,0.277,0.007,0.058,0.017,0.035,-3.902e-4,0,0,0,0,7.407e-8,0.016,0.077,0.005,87.48,-0.018,1.903,9.622,918.036,337.13,0.05,0.457
5.494,833.595,124.595,-15.388,124.638,15.388,18.962,0.002,18.962,0.005,3.261,0.03,28.61,-80.6,9.79,0.131,8.451e-7,0.496,-0.006,2.505,0.7,0.676,0.002,1107.944,949.617,2.056,0.37,1.5e7,0,14.009,0.342,0.342,0.277,0.007,0.058,0.014,0.029,-2.432e-4,0,0,0,0,1.203e-5,0.016,0.077,0.005,87.494,-0.019,1.908,9.582,917.337,337.105,0.05,0.461
5.544,839.806,123.827,-15.314,123.87,15.315,19.125,0.002,19.125,0.005,3.257,0.12,28.61,-80.6,9.79,0.078,2.77e-6,0.79,-0.003,2.505,0.7,0.676,0.002,1108.43,949.617,2.063,0.368,1.49e7,0,13.833,0.342,0.342,0.277,0.007,0.058,0.008,0.017,3.594e-4,0,0,0,0,3.089e-5,0.016,0.077,0.005,87.526,-0.014,1.924,9.541,916.643,337.081,0.05,0.463
5.594,845.978,123.063,-15.242,123.106,15.243,19.287,0.002,19.287,0.005,3.25,0.177,28.61,-80.6,9.79,0.041,0,0.956,-0.012,2.505,0.7,0.676,0.002,1108.746,949.617,2.067,0.365,1.48e7,0,13.66,0.343,0.343,0.278,0.007,0.058,0.004,0.009,8.711e-5,0,0,0,0,4.586e-5,0.016,0.077,0.005,87.571,-0.008,1.883,9.501,915.954,337.057,0.05,0.465
5.644,852.112,122.303,-15.17,122.346,15.172,19.45,0.002,19.45,0.005,3.238,0.277,28.61,-80.6,9.79,0.023,-7.01e-7,-0.993,-0.016,2.505,0.7,0.676,0.002,1108.867,949.617,2.068,0.363,1.471e7,0,13.489,0.343,0.343,0.278,0.007,0.058,0.002,0.005,-2.239e-4,0,0,0,0,-5.002e-5,0.016,0.077,0.005,87.621,-4.413e-4,1.894,9.461,915.269,337.032,0.05,0.467
5.694,858.208,121.547,-15.096,121.589,15.103,19.611,0.002,19.611,0.005,3.22,0.451,28.61,-80.6,9.79,0.131,4.826e-6,-0.776,-0.011,2.505,0.7,0.676,0.002,1107.631,949.617,2.052,0.361,1.461e7,0,13.322,0.343,0.343,0.278,0.007,0.058,0.014,0.029,-3.022e-4,0,0,0,0,-3.095e-5,0.016,0.077,0.005,87.666,0.009,2.015,9.422,914.587,337.008,0.05,0.468
5.744,864.267,120.793,-15.026,120.836,15.036,19.771,0.002,19.771,0.005,3.195,0.543,28.61,-80.6,9.79,0.191,9.976e-7,-0.316,-0.002,2.505,0.7,0.676,0.002,1106.924,949.617,2.043,0.359,1.451e7,0,13.156,0.343,0.343,0.279,0.007,0.058,0.021,0.042,-2.324e-4,0,0,0,0,-5.181e-6,0.015,0.077,0.005,87.694,0.017,2.076,9.382,913.911,336.985,0.05,0.47
5.794,870.288,120.044,-14.961,120.086,14.97,19.931,0.002,19.931,0.006,3.169,0.496,28.61,-80.6,9.79,0.167,1.922e-6,0.189,-0.005,2.505,0.7,0.676,0.002,1107.102,949.617,2.045,0.357,1.441e7,0,12.99,0.343,0.343,0.279,0.007,0.058,0.018,0.037,2.76e-4,0,0,0,0,1.881e-6,0.015,0.077,0.005,87.696,0.021,2.011,9.343,913.238,336.961,0.05,0.471
5.844,876.271,119.297,-14.897,119.339,14.905,20.088,0.002,20.088,0.006,3.144,0.485,28.61,-80.6,9.79,0.163,2.338e-6,0.626,-0.004,2.505,0.7,0.676,0.002,1107.066,949.617,2.045,0.354,1.432e7,0,12.827,0.343,0.343,0.279,0.007,0.057,0.018,0.035,-2.606e-5,0,0,0,0,2.093e-5,0.015,0.077,0.005,87.675,0.022,2.039,9.304,912.569,336.937,0.05,0.473
5.894,882.217,118.554,-14.836,118.595,14.841,20.245,0.002,20.245,0.006,3.123,0.363,28.61,-80.6,9.789,0.088,4.625e-7,0.986,-0.005,2.505,0.7,0.676,0.002,1107.781,949.617,2.054,0.352,1.422e7,0,12.664,0.343,0.343,0.28,0.006,0.057,0.009,0.02,-4.054e-4,0,0,0,0,5.254e-5,0.015,0.077,0.005,87.634,0.021,1.958,9.266,911.905,336.914,0.05,0.476
5.944,888.127,117.814,-14.776,117.855,14.779,20.401,0.002,20.401,0.006,3.107,0.269,28.61,-80.6,9.789,0.028,3.159e-6,1.131,-0.014,2.505,0.7,0.676,0.002,1108.353,949.617,2.062,0.35,1.412e7,0,12.504,0.344,0.344,0.28,0.006,0.057,0.003,0.006,1.434e-4,0,0,0,0,6.998e-5,0.015,0.077,0.005,87.58,0.019,1.927,9.227,911.245,336.891,0.05,0.48
5.994,893.999,117.076,-14.717,117.117,14.718,20.556,0.002,20.556,0.006,3.096,0.181,28.61,-80.6,9.789,0.031,-6.799e-7,-1.129,-0.007,2.505,0.7,0.676,0.002,1108.248,949.617,2.06,0.348,1.403e7,0,12.346,0.344,0.344,0.28,0.006,0.057,0.003,0.007,-4.613e-4,0,0,0,0,-7.057e-5,0.015,0.077,0.005,87.523,0.016,1.903,9.189,910.589,336.867,0.05,0.481
6.044,899.834,116.342,-14.655,116.383,14.656,20.71,0.002,20.71,0.006,3.087,0.183,28.61,-80.6,9.789,0.031,1.941e-6,-1.037,-0.009,2.505,0.7,0.676,0.002,1108.172,949.617,2.059,0.346,1.394e7,0,12.191,0.344,0.344,0.28,0.006,0.057,0.003,0.006,4.347e-4,0,0,0,0,-6.037e-5,0.015,0.077,0.005,87.469,0.014,1.991,9.151,909.937,336.844,0.05,0.483
6.094,905.633,115.611,-14.593,115.652,14.594,20.864,0.002,20.864,0.006,3.077,0.206,28.61,-80.6,9.789,0.017,-6.288e-7,-0.974,0.003,2.505,0.7,0.676,0.002,1108.258,949.617,2.06,0.344,1.384e7,0,12.038,0.344,0.344,0.281,0.006,0.057,0.002,0.004,3.084e-4,0,0,0,0,-5.389e-5,0.015,0.077,0.005,87.419,0.01,2.1,9.113,909.289,336.822,0.05,0.485
6.144,911.395,114.883,-14.542,114.924,14.542,21.018,0.002,21.018,0.006,3.072,0.021,28.61,-80.6,9.789,0.171,1.208e-6,-0.768,0.002,2.505,0.7,0.676,0.002,1106.555,949.617,2.038,0.341,1.375e7,0,11.885,0.344,0.344,0.281,0.006,0.057,0.018,0.037,1.444e-4,0,0,0,0,-3.395e-5,0.015,0.077,0.005,87.374,0.006,1.851,9.076,908.645,336.799,0.05,0.486
6.194,917.121,114.157,-14.484,114.198,14.485,21.172,0.002,21.172,0.006,3.075,0.082,28.61,-80.6,9.789,0.213,2.886e-6,-0.266,-0.005,2.505,0.7,0.676,0.002,1106.04,949.617,2.031,0.339,1.365e7,0,11.734,0.344,0.344,0.281,0.006,0.057,0.023,0.047,2.965e-4,0,0,0,0,-4.128e-6,0.015,0.077,0.005,87.348,0.004,1.784,9.039,908.005,336.776,0.05,0.488
6.244,922.811,113.434,-14.427,113.476,14.427,21.326,0.002,21.326,0.006,3.081,0.126,28.61,-80.6,9.789,0.243,2.011e-6,0.285,-0.003,2.505,0.7,0.676,0.002,1105.66,949.617,2.027,0.337,1.356e7,0,11.585,0.344,0.345,0.282,0.006,0.057,0.026,0.054,3.609e-4,0,0,0,0,4.785e-6,0.015,0.077,0.005,87.348,0.002,1.689,9.002,907.37,336.754,0.05,0.49
6.294,928.465,112.714,-14.363,112.757,14.363,21.48,0.002,21.48,0.006,3.085,0.034,28.61,-80.6,9.789,0.18,0,0.812,-0.005,2.505,0.7,0.676,0.002,1106.247,949.617,2.034,0.335,1.347e7,0,11.437,0.345,0.345,0.282,0.006,0.057,0.019,0.04,1.421e-4,0,0,0,0,3.942e-5,0.014,0.077,0.005,87.377,8.175e-4,1.725,8.965,906.738,336.732,0.05,0.493
6.344,934.083,111.998,-14.302,112.04,14.302,21.634,0.002,21.634,0.006,3.085,0.023,28.61,-80.6,9.789,0.138,2.849e-6,1.176,0.002,2.505,0.7,0.676,0.002,1106.624,949.617,2.039,0.333,1.338e7,0,11.29,0.345,0.345,0.282,0.006,0.057,0.015,0.03,4.292e-5,0,0,0,0,8.379e-5,0.014,0.077,0.005,87.427,0.003,1.679,8.928,906.11,336.71,0.05,0.495
6.394,939.665,111.284,-14.241,111.327,14.241,21.788,0.002,21.788,0.006,3.083,0.081,28.61,-80.6,9.789,0.093,3.635e-6,1.446,-0.004,2.505,0.7,0.676,0.002,1107.034,949.617,2.044,0.331,1.329e7,0,11.146,0.345,0.345,0.283,0.006,0.057,0.01,0.021,4.611e-4,0,0,0,0,1.281e-4,0.014,0.077,0.005,87.493,0.005,1.61,8.892,905.487,336.688,0.05,0.498
6.444,945.211,110.574,-14.181,110.616,14.182,21.942,0.002,21.942,0.006,3.077,0.144,28.61,-80.6,9.789,0.042,4.604e-6,1.598,-0.011,2.505,0.7,0.676,0.002,1107.509,949.617,2.051,0.329,1.319e7,0,11.002,0.345,0.345,0.283,0.006,0.057,0.004,0.009,2.521e-5,0,0,0,0,1.587e-4,0.014,0.077,0.005,87.57,0.004,1.536,8.856,904.867,336.666,0.05,0.5
6.494,950.722,109.866,-14.12,109.909,14.122,22.096,0.003,22.096,0.006,3.067,0.262,28.61,-80.6,9.789,0.052,1.983e-6,-1.586,-0.007,2.505,0.7,0.676,0.002,1107.328,949.617,2.048,0.327,1.31e7,0,10.862,0.345,0.345,0.283,0.006,0.056,0.006,0.012,-2.493e-4,0,0,0,0,-1.583e-4,0.014,0.077,0.005,87.651,3.079e-4,1.543,8.82,904.251,336.644,0.05,0.502
6.544,956.198,109.162,-14.058,109.204,14.065,22.249,0.003,22.249,0.007,3.049,0.452,28.61,-80.6,9.789,0.2,4.45e-7,-1.313,0.003,2.505,0.7,0.676,0.002,1105.712,949.617,2.027,0.325,1.302e7,0,10.725,0.346,0.346,0.284,0.006,0.056,0.022,0.044,4.49e-4,0,0,0,0,-1.098e-4,0.014,0.077,0.005,87.724,-0.006,1.674,8.785,903.639,336.622,0.05,0.504
6.594,961.638,108.46,-14,108.502,14.011,22.401,0.003,22.401,0.007,3.024,0.539,28.61,-80.6,9.789,0.272,3.216e-6,-0.772,-0.003,2.505,0.7,0.676,0.002,1104.907,949.617,2.017,0.323,1.293e7,0,10.588,0.346,0.346,0.284,0.005,0.056,0.03,0.06,-2.877e-5,0,0,0,0,-3.85e-5,0.014,0.077,0.005,87.777,-0.008,1.705,8.749,903.032,336.601,0.05,0.507
6.644,967.044,107.762,-13.943,107.803,13.958,22.551,0.003,22.551,0.007,2.994,0.64,28.61,-80.6,9.789,0.353,1.443e-6,-0.089,0.001,2.505,0.7,0.676,0.002,1104.022,949.617,2.005,0.32,1.284e7,0,10.455,0.346,0.346,0.284,0.005,0.056,0.039,0.078,1.188e-4,0,0,0,0,-5.132e-7,0.014,0.077,0.005,87.799,-0.007,1.815,8.714,902.428,336.58,0.05,0.51
6.694,972.415,107.066,-13.887,107.107,13.905,22.7,0.003,22.7,0.007,2.96,0.705,28.61,-80.6,9.789,0.407,1.872e-6,0.74,-0.006,2.505,0.7,0.676,0.002,1103.425,949.617,1.997,0.318,1.275e7,0,10.322,0.346,0.346,0.285,0.005,0.056,0.045,0.09,3.028e-4,0,0,0,0,3.624e-5,0.014,0.077,0.005,87.783,-0.003,1.948,8.679,901.828,336.559,0.05,0.511
6.744,977.751,106.373,-13.833,106.413,13.853,22.847,0.003,22.847,0.007,2.923,0.759,28.61,-80.6,9.789,0.451,3.238e-6,1.646,-0.007,2.505,0.7,0.676,0.002,1102.931,949.617,1.991,0.316,1.266e7,0,10.192,0.346,0.346,0.285,0.005,0.056,0.05,0.098,2.845e-4,0,0,0,0,1.817e-4,0.014,0.077,0.005,87.723,0.003,2.146,8.645,901.232,336.538,0.05,0.513
6.794,983.052,105.682,-13.784,105.722,13.797,22.992,0.003,22.992,0.007,2.889,0.603,28.61,-80.6,9.789,0.334,7.703e-6,2.495,-0.007,2.505,0.7,0.676,0.002,1104.031,949.617,2.005,0.314,1.257e7,0,10.057,0.346,0.347,0.285,0.005,0.056,0.037,0.073,-4.217e-4,0,0,0,0,4.23e-4,0.014,0.077,0.005,87.618,0.013,2.124,8.61,900.639,336.517,0.05,0.514
6.844,988.319,104.994,-13.738,105.033,13.744,23.136,0.003,23.136,0.007,2.863,0.418,28.61,-80.6,9.789,0.187,-1.714e-6,3.017,-0.012,2.505,0.7,0.676,0.002,1105.479,949.617,2.024,0.312,1.249e7,0,9.924,0.347,0.347,0.285,0.005,0.056,0.02,0.04,3.499e-4,0,0,0,0,6.268e-4,0.013,0.077,0.005,87.479,0.02,2.101,8.576,900.051,336.496,0.05,0.516
6.894,993.551,104.309,-13.693,104.347,13.696,23.279,0.003,23.279,0.007,2.847,0.256,28.61,-80.6,9.789,0.05,2.118e-6,3.253,-0.045,2.505,0.7,0.676,0.002,1106.851,949.617,2.042,0.31,1.24e7,0,9.795,0.347,0.347,0.286,0.005,0.056,0.005,0.01,-1.083e-4,0,0,0,0,7.38e-4,0.013,0.077,0.005,87.32,0.024,2.124,8.542,899.466,336.475,0.05,0.517
6.944,998.75,103.625,-13.651,103.664,13.651,23.421,0.003,23.421,0.007,2.838,0.08,28.61,-80.6,9.789,0.105,1.88e-6,-3.192,-0.022,2.505,0.7,0.676,0.002,1106.215,949.617,2.034,0.308,1.231e7,0,9.667,0.347,0.347,0.286,0.005,0.056,0.011,0.024,6.464e-6,0,0,0,0,-7.199e-4,0.013,0.077,0.005,87.158,0.024,2.114,8.508,898.885,336.455,0.05,0.519
6.994,1003.914,102.944,-13.609,102.983,13.609,23.563,0.003,23.563,0.007,2.838,0.069,28.61,-80.6,9.789,0.237,0,-2.847,-0.009,2.505,0.7,0.676,0.002,1104.781,949.617,2.015,0.306,1.223e7,0,9.543,0.347,0.347,0.286,0.005,0.056,0.026,0.052,-1.173e-4,0,0,0,0,-5.803e-4,0.013,0.077,0.005,87.006,0.022,2.116,8.475,898.329,336.434,0.05,0.52
7.044,1009.044,102.264,-13.567,102.304,13.568,23.705,0.003,23.705,0.007,2.845,0.186,28.61,-80.6,9.789,0.342,1.334e-6,-2.273,-0.006,2.505,0.7,0.676,0.002,1103.659,949.617,2.001,0.304,1.214e7,0,9.42,0.347,0.347,0.287,0.005,0.056,0.037,0.075,2.929e-4,0,0,0,0,-3.75e-4,0.013,0.077,0.005,86.877,0.019,2.12,8.441,897.784,336.414,0.05,0.525
7.094,1014.14,101.587,-13.527,101.627,13.53,23.847,0.003,23.847,0.007,2.858,0.318,28.61,-80.6,9.789,0.459,5.404e-6,-1.504,-0.007,2.505,0.7,0.676,0.002,1102.446,949.617,1.985,0.302,1.206e7,0,9.299,0.348,0.348,0.287,0.005,0.056,0.051,0.1,1.965e-4,0,0,0,0,-1.663e-4,0.013,0.077,0.005,86.782,0.015,2.036,8.408,897.242,336.394,0.05,0.529
7.144,1019.203,100.912,-13.481,100.953,13.486,23.991,0.003,23.991,0.007,2.875,0.355,28.61,-80.6,9.789,0.496,4.198e-6,-0.582,-0.007,2.505,0.7,0.676,0.002,1102.025,949.617,1.979,0.3,1.197e7,0,9.178,0.348,0.348,0.287,0.005,0.056,0.055,0.108,8.082e-5,0,0,0,0,-2.528e-5,0.013,0.077,0.005,86.73,0.011,2.014,8.375,896.703,336.374,0.05,0.531
7.194,1024.232,100.239,-13.431,100.28,13.435,24.135,0.003,24.135,0.007,2.892,0.329,28.61,-80.6,9.789,0.479,3.047e-6,0.333,-0.004,2.505,0.7,0.676,0.002,1102.134,949.617,1.981,0.298,1.189e7,0,9.056,0.348,0.348,0.288,0.005,0.055,0.053,0.105,-3.8e-4,0,0,0,0,8.391e-6,0.013,0.077,0.005,86.724,0.008,2.004,8.342,896.168,336.354,0.05,0.532
7.244,1029.227,99.569,-13.378,99.611,13.381,24.28,0.003,24.28,0.007,2.907,0.259,28.61,-80.6,9.789,0.421,9.147e-7,1.168,-0.003,2.505,0.7,0.676,0.002,1102.653,949.617,1.987,0.296,1.181e7,0,8.936,0.348,0.348,0.288,0.005,0.055,0.046,0.091,4.862e-4,0,0,0,0,1.044e-4,0.013,0.077,0.005,86.763,0.006,1.992,8.31,895.637,336.335,0.05,0.534
7.294,1034.188,98.901,-13.322,98.944,13.323,24.426,0.003,24.426,0.007,2.917,0.127,28.61,-80.6,9.789,0.304,4.862e-7,1.833,-0.008,2.505,0.7,0.676,0.002,1103.763,949.617,2.002,0.294,1.172e7,0,8.816,0.348,0.348,0.288,0.005,0.055,0.033,0.066,3.933e-4,0,0,0,0,2.606e-4,0.013,0.077,0.005,86.839,0.003,2.019,8.278,895.109,336.315,0.05,0.535
7.344,1039.117,98.236,-13.271,98.28,13.271,24.572,0.003,24.572,0.007,2.921,0.061,28.61,-80.6,9.789,0.24,5.852e-6,2.312,-0.007,2.505,0.7,0.676,0.002,1104.358,949.617,2.01,0.292,1.164e7,0,8.697,0.349,0.349,0.289,0.005,0.055,0.026,0.052,-2.939e-4,0,0,0,0,4.202e-4,0.013,0.077,0.005,86.944,-5.394e-4,1.912,8.246,894.585,336.296,0.05,0.537
7.394,1044.012,97.574,-13.215,97.618,13.216,24.718,0.003,24.718,0.008,2.92,0.105,28.61,-80.6,9.789,0.08,1.031e-5,2.599,-0.021,2.505,0.7,0.676,0.002,1105.969,949.617,2.031,0.291,1.156e7,0,8.581,0.349,0.349,0.289,0.005,0.055,0.008,0.017,1.97e-4,0,0,0,0,5.383e-4,0.013,0.077,0.005,87.068,-0.002,1.943,8.214,894.064,336.277,0.05,0.539
7.444,1048.874,96.915,-13.162,96.958,13.165,24.863,0.003,24.863,0.008,2.911,0.253,28.61,-80.6,9.789,0.073,9.825e-6,-2.597,-0.028,2.505,0.7,0.676,0.002,1105.988,949.617,2.031,0.289,1.147e7,0,8.467,0.349,0.349,0.289,0.005,0.055,0.008,0.016,-2.183e-4,0,0,0,0,-5.448e-4,0.012,0.077,0.005,87.199,-0.001,1.956,8.182,893.547,336.257,0.05,0.54
7.494,1053.704,96.258,-13.108,96.301,13.117,25.009,0.003,25.009,0.008,2.893,0.474,28.61,-80.6,9.789,0.295,0,-2.287,-0.004,2.505,0.7,0.676,0.002,1103.645,949.617,2,0.287,1.139e7,0,8.357,0.349,0.349,0.29,0.005,0.055,0.032,0.064,3.16e-4,0,0,0,0,-4.284e-4,0.012,0.077,0.005,87.323,-0.001,2.107,8.151,893.033,336.238,0.05,0.543
7.544,1058.5,95.604,-13.062,95.647,13.072,25.153,0.003,25.153,0.008,2.868,0.517,28.61,-80.6,9.789,0.348,6.321e-7,-1.721,-0.003,2.505,0.7,0.676,0.002,1103.06,949.617,1.993,0.285,1.131e7,0,8.245,0.349,0.35,0.29,0.004,0.055,0.038,0.076,-2.131e-4,0,0,0,0,-2.458e-4,0.012,0.077,0.005,87.423,6.517e-4,2.018,8.12,892.523,336.219,0.05,0.546
7.594,1063.264,94.952,-13.016,94.994,13.029,25.295,0.003,25.295,0.008,2.84,0.588,28.61,-80.6,9.789,0.425,4.897e-6,-1.09,-0.007,2.505,0.7,0.676,0.002,1102.242,949.617,1.982,0.283,1.123e7,0,8.136,0.35,0.35,0.29,0.004,0.055,0.047,0.093,4.779e-4,0,0,0,0,-9.996e-5,0.012,0.077,0.005,87.494,0.003,2.023,8.089,892.016,336.201,0.05,0.548
7.644,1067.995,94.302,-12.972,94.344,12.985,25.437,0.003,25.437,0.008,2.811,0.582,28.61,-80.6,9.789,0.43,1.989e-6,-0.37,-0.002,2.505,0.7,0.676,0.002,1102.145,949.617,1.981,0.281,1.115e7,0,8.026,0.35,0.35,0.291,0.004,0.055,0.047,0.093,-5.722e-5,0,0,0,0,-1.17e-5,0.012,0.077,0.005,87.53,0.008,1.967,8.058,891.513,336.182,0.05,0.55
7.694,1072.694,93.654,-12.93,93.696,12.942,25.576,0.004,25.576,0.008,2.783,0.544,28.61,-80.6,9.789,0.4,1.969e-6,0.302,-0.006,2.505,0.7,0.676,0.002,1102.385,949.617,1.984,0.279,1.107e7,0,7.917,0.35,0.35,0.291,0.004,0.055,0.044,0.087,-1.319e-4,0,0,0,0,7.893e-6,0.012,0.077,0.005,87.531,0.013,1.911,8.027,891.013,336.164,0.05,0.552
7.744,1077.361,93.009,-12.889,93.05,12.899,25.715,0.004,25.715,0.008,2.756,0.51,28.61,-80.6,9.789,0.372,3.018e-6,0.916,-6.903e-4,2.505,0.7,0.676,0.002,1102.614,949.617,1.987,0.277,1.099e7,0,7.809,0.35,0.35,0.291,0.004,0.055,0.041,0.081,1.577e-4,0,0,0,0,7.355e-5,0.012,0.077,0.005,87.5,0.016,1.91,7.997,890.517,336.145,0.05,0.553
7.794,1081.995,92.366,-12.848,92.406,12.856,25.852,0.004,25.852,0.008,2.732,0.447,28.61,-80.6,9.789,0.313,-5.054e-7,1.459,-0.006,2.505,0.7,0.676,0.002,1103.16,949.617,1.994,0.275,1.091e7,0,7.702,0.351,0.351,0.292,0.004,0.055,0.034,0.068,-1.796e-4,0,0,0,0,1.893e-4,0.012,0.077,0.005,87.44,0.017,1.902,7.967,890.024,336.127,0.05,0.555
7.844,1086.597,91.724,-12.81,91.764,12.814,25.988,0.004,25.988,0.008,2.712,0.353,28.61,-80.6,9.789,0.216,4.076e-6,1.87,-1.889e-4,2.505,0.7,0.676,0.002,1104.093,949.617,2.006,0.273,1.083e7,0,7.596,0.351,0.351,0.292,0.004,0.055,0.023,0.046,4.933e-4,0,0,0,0,3.154e-4,0.012,0.077,0.005,87.356,0.017,1.869,7.937,889.534,336.109,0.05,0.557
7.894,1091.168,91.085,-12.774,91.124,12.776,26.123,0.004,26.123,0.008,2.698,0.209,28.61,-80.6,9.789,0.06,2.898e-6,2.082,-0.007,2.505,0.7,0.676,0.002,1105.657,949.617,2.026,0.271,1.075e7,0,7.49,0.351,0.351,0.292,0.004,0.055,0.006,0.012,-3.168e-4,0,0,0,0,3.967e-4,0.012,0.077,0.005,87.256,0.016,1.762,7.907,889.048,336.091,0.05,0.564
