# Time (s),Altitude (m),Vertical velocity (m/s),Vertical acceleration (m/s²),Total velocity (m/s),Total acceleration (m/s²),Position East of launch (m),Position North of launch (m),Lateral distance (m),Lateral direction (°),Lateral velocity (m/s),Lateral acceleration (m/s²),Latitude (°),Longitude (°),Gravitational acceleration (m/s²),Angle of attack (°),Roll rate (°/s),Pitch rate (°/s),Yaw rate (°/s),Mass (kg),Motor mass (kg),Longitudinal moment of inertia (kg·m²),Rotational moment of inertia (kg·m²),CP location (mm),CG location (mm),Stability margin calibers (​),Mach number (​),Reynolds number (​),Thrust (N),Drag force (N),Drag coefficient (​),Axial drag coefficient (​),Friction drag coefficient (​),Pressure drag coefficient (​),Base drag coefficient (​),Normal force coefficient (​),Pitch moment coefficient (​),Yaw moment coefficient (​),Side force coefficient (​),Roll moment coefficient (​),Roll forcing coefficient (​),Roll damping coefficient (​),Pitch damping coefficient (​),Coriolis acceleration (m/s²),Reference length (m),Reference area (m²),Vertical orientation (zenith) (°),Lateral orientation (azimuth) (°),Wind velocity (m/s),Air temperature (°C),Air pressure (mbar),Speed of sound (m/s),Simulation time step (s),Computation time (s)
0.01,0.002,0.446,44.595,0.446,44.595,0,0,0,0,0,0,28.61,-80.6,9.792,79.383,0,0,0,2.7,0.861,0.833,0.003,NaN,952.808,NaN,0.007,3.112e5,146.833,1.427e-4,0.602,0.009,0.56,0.002,0.041,NaN,NaN,NaN,NaN,NaN,NaN,NaN,NaN,5.709e-5,0.077,0.005,90,0,2.379,15,1013.25,340.389,0.01,0.052
0.02,0.014,1.895,144.918,1.895,144.918,0,0,0,0,0,0,28.61,-80.6,9.792,51.05,0,0,0,2.699,0.86,0.833,0.003,NaN,952.754,NaN,0.009,3.876e5,417.64,0.007,0.576,0.273,0.533,0.002,0.041,NaN,NaN,NaN,NaN,NaN,NaN,NaN,NaN,2.426e-4,0.077,0.005,90,0,2.344,15,1013.248,340.389,0.01,0.06
0.03,0.039,3.188,129.3,3.188,129.3,0,0,0,0,0,0,28.61,-80.6,9.792,35.927,0,0,0,2.699,0.86,0.833,0.003,NaN,952.679,NaN,0.012,5.062e5,375.438,0.023,0.546,0.513,0.503,0.002,0.041,NaN,NaN,NaN,NaN,NaN,NaN,NaN,NaN,4.082e-4,0.077,0.005,90,0,2.31,15,1013.245,340.389,0.01,0.066
0.04,0.077,4.356,116.785,4.356,116.785,0,0,0,0,0,0,28.61,-80.6,9.792,27.584,0,0,0,2.699,0.86,0.833,0.003,NaN,952.602,NaN,0.014,6.319e5,341.624,0.042,0.523,0.61,0.48,0.002,0.041,NaN,NaN,NaN,NaN,NaN,NaN,NaN,NaN,5.577e-4,0.077,0.005,90,0,2.276,14.999,1013.241,340.389,0.01,0.071
0.05,0.127,5.593,123.718,5.593,123.718,0,0,0,0,0,0,28.61,-80.6,9.792,21.837,0,0,0,2.698,0.859,0.833,0.003,NaN,952.525,NaN,0.018,7.747e5,360.3,0.066,0.504,0.639,0.461,0.002,0.041,NaN,NaN,NaN,NaN,NaN,NaN,NaN,NaN,7.161e-4,0.077,0.005,90,0,2.241,14.999,1013.235,340.388,0.01,0.075
0.06,0.189,6.899,130.652,6.899,130.652,0,0,0,0,0,0,28.61,-80.6,9.792,18.048,0,0,0,2.698,0.859,0.833,0.003,NaN,952.447,NaN,0.021,9.33e5,378.976,0.094,0.487,0.632,0.444,0.002,0.041,NaN,NaN,NaN,NaN,NaN,NaN,NaN,NaN,8.834e-4,0.077,0.005,90,0,2.248,14.999,1013.228,340.388,0.01,0.081
0.07,0.265,8.275,137.586,8.275,137.586,0,0,0,0,0,0,28.61,-80.6,9.792,15.244,0,0,0,2.697,0.858,0.833,0.003,NaN,952.37,NaN,0.025,1.103e6,397.652,0.127,0.472,0.61,0.429,0.002,0.041,NaN,NaN,NaN,NaN,NaN,NaN,NaN,NaN,0.001,0.077,0.005,90,0,2.255,14.998,1013.219,340.388,0.01,0.091
0.08,0.355,9.72,144.521,9.72,144.521,0,0,0,0,0,0,28.61,-80.6,9.792,13.101,0,0,0,2.697,0.858,0.832,0.003,NaN,952.293,NaN,0.029,1.283e6,416.328,0.164,0.46,0.58,0.417,0.002,0.041,NaN,NaN,NaN,NaN,NaN,NaN,NaN,NaN,0.001,0.077,0.005,90,0,2.262,14.998,1013.208,340.388,0.01,0.098
0.09,0.46,11.235,151.456,11.235,151.456,0,0,0,0,0,0,28.61,-80.6,9.792,11.419,0,0,0,2.696,0.857,0.832,0.003,NaN,952.215,NaN,0.034,1.474e6,435.004,0.205,0.449,0.55,0.406,0.002,0.041,NaN,NaN,NaN,NaN,NaN,NaN,NaN,NaN,0.001,0.077,0.005,90,0,2.269,14.997,1013.196,340.387,0.01,0.102
0.099,0.566,12.642,158.01,12.642,158.01,0,0,0,0,0,0,28.61,-80.6,9.792,10.204,0,0,0,2.696,0.857,0.832,0.003,NaN,952.146,NaN,0.038,1.651e6,452.654,0.247,0.441,0.527,0.397,0.002,0.041,NaN,NaN,NaN,NaN,NaN,NaN,NaN,NaN,0.002,0.077,0.005,90,0,2.275,14.996,1013.184,340.387,0.009,0.106
0.107,0.671,13.938,163.839,13.938,163.839,0,0,0,0,0,0,28.61,-80.6,9.792,9.291,0,0,0,2.696,0.857,0.832,0.003,NaN,952.085,NaN,0.041,1.816e6,468.353,0.288,0.435,0.509,0.391,0.002,0.041,NaN,NaN,NaN,NaN,NaN,NaN,NaN,NaN,0.002,0.077,0.005,90,0,2.28,14.996,1013.171,340.386,0.008,0.109
0.114,0.776,15.151,169.07,15.151,169.07,0,0,0,0,0,0,28.61,-80.6,9.792,8.574,0,0,0,2.695,0.856,0.832,0.003,NaN,952.029,NaN,0.045,1.97e6,482.439,0.329,0.429,0.495,0.386,0.002,0.041,NaN,NaN,NaN,NaN,NaN,NaN,NaN,NaN,0.002,0.077,0.005,90,0,2.284,14.995,1013.159,340.386,0.007,0.114
0.121,0.879,16.299,173.846,16.299,173.846,0,0,0,0,0,0,28.61,-80.6,9.792,7.992,0,0,0,2.695,0.856,0.832,0.003,NaN,951.978,NaN,0.048,2.116e6,495.302,0.371,0.425,0.483,0.381,0.002,0.041,NaN,NaN,NaN,NaN,NaN,NaN,NaN,NaN,0.002,0.077,0.005,90,0,2.288,14.994,1013.147,340.385,0.007,0.119
0.127,0.983,17.393,178.261,17.393,178.261,0,0,0,0,0,0,28.61,-80.6,9.792,7.507,0,0,0,2.695,0.856,0.832,0.003,NaN,951.93,NaN,0.052,2.256e6,507.194,0.413,0.421,0.473,0.377,0.003,0.041,NaN,NaN,NaN,NaN,NaN,NaN,NaN,NaN,0.002,0.077,0.005,90,0,2.292,14.994,1013.135,340.385,0.006,0.128
0.132,1.086,18.442,182.381,18.442,182.381,0,0,0,0,0,0,28.61,-80.6,9.792,7.095,0,0,0,2.695,0.856,0.832,0.003,NaN,951.886,NaN,0.055,2.389e6,518.292,0.455,0.417,0.464,0.373,0.003,0.041,NaN,NaN,NaN,NaN,NaN,NaN,NaN,NaN,0.002,0.077,0.005,90,0,2.295,14.993,1013.123,340.385,0.006,0.135
0.141,1.252,20.036,184.867,20.036,184.868,-1.725e-5,0,1.725e-5,-180,0.004,0.479,28.61,-80.6,9.792,6.538,0,0.084,1.111e-5,2.694,0.855,0.832,0.003,1065.736,951.814,1.483,0.059,2.593e6,524.981,0.523,0.412,0.453,0.368,0.003,0.041,1.115,1.654,3.241e-4,0,0,0,0,1.328e-5,0.003,0.077,0.005,90,-0.006,2.3,14.992,1013.103,340.384,0.009,0.144
0.154,1.526,22.4,182.652,22.4,182.653,-1.104e-4,0,1.104e-4,-180,0.01,0.51,28.61,-80.6,9.792,5.872,0,0.221,-3.871e-5,2.694,0.855,0.831,0.003,1068.725,951.705,1.524,0.066,2.895e6,519.005,0.632,0.406,0.439,0.362,0.003,0.041,0.964,1.469,4.338e-4,0,0,0,0,7.4e-5,0.003,0.077,0.005,89.998,2.005e-4,2.315,14.99,1013.071,340.383,0.013,0.151
0.173,1.995,25.877,179.075,25.877,179.076,-4.116e-4,0,4.116e-4,-180,0.021,0.551,28.61,-80.6,9.792,5.159,0,0.455,-5.08e-5,2.693,0.854,0.831,0.003,1072.243,951.541,1.572,0.076,3.34e6,509.38,0.812,0.398,0.424,0.353,0.003,0.041,0.812,1.276,3.407e-4,0,0,0,0,2.35e-4,0.003,0.077,0.005,89.991,0.005,2.361,14.987,1013.016,340.381,0.019,0.157
0.203,2.822,30.939,173.695,30.939,173.696,-0.001,0,0.001,180,0.037,0.578,28.61,-80.6,9.792,4.368,0,0.87,6.011e-6,2.691,0.852,0.831,0.003,1076.583,951.295,1.631,0.091,3.988e6,494.941,1.112,0.388,0.407,0.343,0.003,0.042,0.654,1.067,-1.196e-4,0,0,0,0,6.011e-4,0.004,0.077,0.005,89.972,0.004,2.415,14.982,1012.919,340.378,0.029,0.162
0.246,4.331,38.181,165.596,38.181,165.597,-0.003,5.35e-9,0.003,180,0.06,0.452,28.61,-80.6,9.792,3.249,0,1.583,1.497e-4,2.689,0.85,0.83,0.003,1083.627,950.925,1.728,0.112,4.915e6,473.283,1.611,0.378,0.388,0.332,0.004,0.042,0.452,0.78,2.948e-4,0,0,0,0,0.001,0.005,0.077,0.005,89.919,-0.002,2.281,14.972,1012.742,340.372,0.044,0.168
0.296,6.434,45.947,155.137,45.947,155.138,-0.007,-1.801e-8,0.007,-180,0.077,0.175,28.61,-80.6,9.792,2.379,0,2.465,4.373e-6,2.687,0.848,0.829,0.003,1090.062,950.501,1.817,0.135,5.91e6,445.407,2.248,0.369,0.375,0.323,0.004,0.042,0.311,0.563,-4.456e-4,0,0,0,0,0.002,0.006,0.077,0.005,89.818,-0.003,2.132,14.958,1012.495,340.364,0.05,0.172
0.346,8.911,53.148,143.962,53.148,143.962,-0.011,-1.225e-7,0.011,-179.999,0.079,0.15,28.61,-80.6,9.792,1.919,3.921e-7,3.393,0.001,2.685,0.846,0.829,0.003,1093.98,950.085,1.874,0.156,6.835e6,415.717,2.939,0.363,0.366,0.316,0.005,0.042,0.243,0.452,4.199e-4,0,0,0,0,0.003,0.007,0.077,0.005,89.672,-0.005,2.165,14.942,1012.205,340.354,0.05,0.182
0.396,11.739,59.948,135.915,59.948,135.916,-0.015,-4.397e-7,0.015,-179.998,0.062,0.628,28.61,-80.6,9.792,1.488,-3.134e-6,4.352,-1.935e-4,2.683,0.844,0.828,0.003,1097.971,949.741,1.93,0.176,7.706e6,394.573,3.672,0.358,0.36,0.31,0.005,0.043,0.182,0.347,9.023e-5,0,0,0,0,0.004,0.008,0.077,0.005,89.478,-0.006,2.165,14.924,1011.873,340.343,0.05,0.189
0.446,14.899,66.454,130.019,66.454,130.025,-0.017,-1.176e-6,0.017,-179.996,0.016,1.27,28.61,-80.6,9.792,1.052,1.052e-6,5.235,0.001,2.681,0.842,0.828,0.003,1102.31,949.396,1.991,0.195,8.539e6,379.278,4.445,0.354,0.355,0.305,0.006,0.043,0.124,0.243,-4.645e-4,0,0,0,0,0.005,0.009,0.077,0.005,89.238,-0.006,2.12,14.903,1011.503,340.33,0.05,0.195
0.496,18.377,72.665,124.097,72.665,124.113,-0.016,-2.475e-6,0.016,-179.991,0.063,1.996,28.61,-80.6,9.792,0.672,-4.028e-7,5.95,2.338e-4,2.679,0.84,0.827,0.003,1106.433,949.051,2.049,0.214,9.335e6,363.982,5.254,0.351,0.351,0.301,0.006,0.043,0.077,0.153,-1.375e-4,0,0,0,0,0.005,0.009,0.077,0.005,88.957,-0.005,2.11,14.881,1011.095,340.317,0.05,0.201
0.546,22.159,78.603,118.641,78.604,118.676,-0.01,-4.447e-6,0.01,-179.974,0.182,2.851,28.61,-80.6,9.792,0.232,-2.281e-6,6.379,0.004,2.677,0.838,0.826,0.003,1111.499,948.756,2.119,0.231,1.009e7,350.044,6.091,0.348,0.348,0.297,0.007,0.044,0.026,0.049,3.096e-4,0,0,0,0,0.005,0.01,0.077,0.005,88.648,-0.006,1.99,14.856,1010.651,340.302,0.05,0.204
0.596,26.234,84.408,115.94,84.408,116.001,0.003,-7.303e-6,0.003,-0.127,0.346,3.76,28.61,-80.6,9.792,0.123,-9.445e-6,-6.406,0.01,2.676,0.837,0.826,0.003,1113.17,948.508,2.144,0.248,1.084e7,343.591,6.975,0.346,0.346,0.294,0.008,0.044,0.013,0.033,-2.803e-4,0,0,0,0,-0.004,0.011,0.077,0.005,88.327,-0.006,1.936,14.829,1010.173,340.286,0.05,0.21
0.646,30.597,90.098,113.642,90.099,113.735,0.026,-1.139e-5,0.026,-0.026,0.554,4.611,28.61,-80.6,9.792,0.36,-4.233e-6,-6.044,0.002,2.675,0.836,0.826,0.003,1111.06,948.259,2.12,0.265,1.156e7,338.281,7.904,0.344,0.344,0.291,0.008,0.044,0.04,0.089,-4.118e-4,0,0,0,0,-0.003,0.012,0.077,0.005,88.014,-0.007,2.002,14.801,1009.662,340.268,0.05,0.215
0.696,35.241,95.672,111.326,95.676,111.454,0.059,-1.714e-5,0.059,-0.017,0.801,5.321,28.61,-80.6,9.792,0.484,3.401e-6,-5.365,0.002,2.673,0.834,0.825,0.003,1110.245,948.01,2.112,0.281,1.227e7,332.971,8.871,0.342,0.342,0.288,0.009,0.045,0.055,0.118,3.4e-5,0,0,0,0,-0.002,0.012,0.077,0.005,87.728,-0.007,2.184,14.771,1009.117,340.25,0.05,0.221
0.746,40.161,101.131,108.988,101.137,109.157,0.106,-2.469e-5,0.106,-0.013,1.084,6.069,28.61,-80.6,9.792,0.695,9.089e-7,-4.314,0.003,2.672,0.833,0.825,0.003,1108.572,947.761,2.094,0.297,1.297e7,327.661,9.876,0.341,0.341,0.286,0.01,0.045,0.08,0.169,2.91e-4,0,0,0,0,-0.001,0.013,0.077,0.005,87.485,-0.005,2.126,14.739,1008.54,340.231,0.05,0.226
0.796,45.351,106.472,106.647,106.481,106.847,0.168,-3.363e-5,0.168,-0.011,1.398,6.521,28.61,-80.6,9.792,0.758,7.266e-6,-2.851,-0.001,2.671,0.832,0.824,0.003,1108.465,947.512,2.096,0.313,1.365e7,322.351,10.909,0.34,0.34,0.284,0.01,0.046,0.088,0.185,-4.32e-4,0,0,0,0,-5.48e-4,0.014,0.077,0.005,87.305,-0.003,2.199,14.705,1007.931,340.21,0.05,0.233
0.846,50.806,111.696,104.299,111.709,104.524,0.246,-4.317e-5,0.246,-0.01,1.732,6.853,28.61,-80.6,9.792,0.842,3.707e-6,-1.083,-6.773e-4,2.669,0.83,0.824,0.003,1108.167,947.262,2.095,0.329,1.432e7,317.041,11.972,0.339,0.339,0.282,0.011,0.046,0.099,0.207,3.739e-4,0,0,0,0,-7.179e-5,0.014,0.077,0.005,87.206,-0.001,2.071,14.67,1007.291,340.189,0.05,0.24
0.896,56.518,116.803,101.959,116.821,102.187,0.342,-5.249e-5,0.342,-0.009,2.073,6.833,28.61,-80.6,9.792,0.823,0,0.964,0.005,2.668,0.829,0.823,0.003,1108.924,947.012,2.108,0.344,1.496e7,311.731,13.055,0.338,0.339,0.28,0.012,0.046,0.096,0.203,-3.426e-4,0,0,0,0,5.203e-5,0.015,0.077,0.005,87.204,2.35e-4,1.949,14.633,1006.621,340.166,0.05,0.246
0.946,62.483,121.793,99.638,121.817,99.837,0.453,-6.087e-5,0.453,-0.008,2.401,6.302,28.61,-80.6,9.792,0.641,1.216e-5,2.922,0.006,2.667,0.828,0.823,0.003,1111.378,946.762,2.143,0.358,1.56e7,306.421,14.152,0.337,0.338,0.278,0.013,0.047,0.074,0.158,3.572e-4,0,0,0,0,4.397e-4,0.016,0.077,0.005,87.303,0.003,1.973,14.594,1005.922,340.143,0.05,0.251
0.996,68.695,126.667,97.32,126.696,97.475,0.581,-6.732e-5,0.581,-0.007,2.695,5.499,28.61,-80.6,9.792,0.424,-1.467e-5,4.449,-0.001,2.665,0.826,0.823,0.003,1114.288,946.511,2.185,0.373,1.621e7,301.111,15.269,0.337,0.337,0.276,0.014,0.047,0.048,0.104,2.107e-4,0,0,0,0,9.425e-4,0.016,0.077,0.005,87.491,0.005,1.921,14.553,1005.193,340.118,0.05,0.256
1.046,75.147,131.426,95.004,131.458,95.101,0.722,-7.1e-5,0.722,-0.006,2.938,4.301,28.61,-80.6,9.792,0.084,-1.292e-5,5.234,0.009,2.664,0.825,0.822,0.003,1118.736,946.261,2.246,0.387,1.682e7,295.801,16.406,0.337,0.337,0.274,0.015,0.048,0.009,0.019,-7.927e-5,0,0,0,0,0.001,0.017,0.077,0.005,87.737,0.004,2.071,14.512,1004.437,340.093,0.05,0.261
1.096,81.835,136.068,92.668,136.104,92.722,0.874,-7.25e-5,0.874,-0.005,3.121,3.155,28.61,-80.6,9.792,0.192,-1.583e-6,-5.004,0.006,2.662,0.823,0.822,0.003,1118.134,946.01,2.241,0.4,1.74e7,290.491,17.566,0.336,0.336,0.273,0.015,0.048,0.021,0.049,2.442e-5,0,0,0,0,-0.001,0.017,0.077,0.005,87.997,-6.486e-4,2.103,14.468,1003.652,340.067,0.05,0.266
1.146,88.751,140.593,90.31,140.63,90.337,1.033,-7.356e-5,1.033,-0.004,3.252,2.204,28.61,-80.6,9.792,0.375,-5.257e-6,-3.941,0.003,2.661,0.822,0.821,0.003,1116.703,945.758,2.226,0.414,1.797e7,285.181,18.743,0.336,0.336,0.271,0.016,0.049,0.042,0.095,6.553e-5,0,0,0,0,-6.003e-4,0.018,0.077,0.005,88.223,-0.006,2.039,14.423,1002.841,340.039,0.05,0.271
1.196,95.891,144.999,87.939,145.037,87.949,1.198,-7.582e-5,1.198,-0.004,3.337,1.337,28.61,-80.6,9.792,0.554,7.447e-7,-2.09,-0.002,2.66,0.821,0.821,0.003,1115.372,945.507,2.212,0.427,1.852e7,279.871,19.935,0.336,0.337,0.27,0.017,0.049,0.064,0.141,-8.461e-5,0,0,0,0,-1.587e-4,0.019,0.077,0.005,88.377,-0.008,2.187,14.377,1002.004,340.011,0.05,0.274
1.246,103.248,149.286,85.546,149.325,85.556,1.367,-7.947e-5,1.367,-0.003,3.398,1.287,28.61,-80.6,9.792,0.488,-3.513e-6,0.135,0.004,2.658,0.819,0.821,0.003,1116.729,945.255,2.233,0.439,1.906e7,274.561,21.116,0.336,0.337,0.268,0.018,0.05,0.056,0.125,3.413e-4,0,0,0,0,6.251e-7,0.019,0.077,0.005,88.423,-0.009,1.986,14.329,1001.141,339.982,0.05,0.277
1.296,110.817,153.454,83.143,153.493,83.158,1.538,-8.49e-5,1.538,-0.003,3.466,1.547,28.61,-80.6,9.792,0.383,-5.521e-6,2.082,-0.006,2.657,0.818,0.82,0.003,1118.53,945.003,2.259,0.452,1.958e7,269.251,22.301,0.337,0.337,0.267,0.019,0.05,0.044,0.099,1.694e-4,0,0,0,0,1.406e-4,0.02,0.077,0.005,88.364,-0.008,1.942,14.28,1000.253,339.952,0.05,0.281
1.346,118.591,157.501,80.728,157.541,80.756,1.713,-9.227e-5,1.713,-0.003,3.555,2.13,28.61,-80.6,9.792,0.224,-1.111e-5,3.521,-0.008,2.656,0.817,0.82,0.003,1120.989,944.751,2.295,0.464,2.008e7,263.941,23.487,0.337,0.337,0.266,0.02,0.051,0.025,0.058,-3.593e-4,0,0,0,0,3.819e-4,0.02,0.077,0.005,88.219,-0.005,1.952,14.229,999.341,339.922,0.05,0.287
1.396,126.564,161.427,78.299,161.468,78.355,1.894,-1.004e-4,1.894,-0.003,3.681,2.977,28.61,-80.6,9.792,0.013,1.196e-5,4.114,-0.067,2.654,0.815,0.819,0.003,1124.14,944.499,2.339,0.475,2.057e7,258.632,24.675,0.337,0.337,0.265,0.021,0.051,0.001,0.003,-1.94e-4,0,0,0,0,4.963e-4,0.021,0.077,0.005,88.023,0.002,1.916,14.177,998.406,339.89,0.05,0.291
1.446,134.731,165.231,75.864,165.275,75.955,2.082,-1.069e-4,2.082,-0.003,3.849,3.724,28.61,-80.6,9.792,0.153,5.272e-6,-3.698,-0.007,2.653,0.814,0.819,0.003,1123.12,944.246,2.329,0.486,2.104e7,253.322,25.866,0.338,0.338,0.264,0.022,0.052,0.017,0.041,6.008e-5,0,0,0,0,-3.828e-4,0.021,0.077,0.005,87.823,0.004,1.979,14.124,997.448,339.858,0.05,0.294
1.496,143.084,168.913,73.425,168.961,73.56,2.28,-1.104e-4,2.28,-0.003,4.053,4.455,28.61,-80.6,9.792,0.319,5.773e-6,-2.375,-6.762e-4,2.652,0.813,0.818,0.003,1121.829,943.993,2.316,0.497,2.15e7,248.012,27.054,0.338,0.338,0.263,0.023,0.052,0.036,0.084,1.599e-4,0,0,0,0,-1.511e-4,0.022,0.077,0.005,87.668,0.005,1.87,14.07,996.469,339.825,0.05,0.296
1.546,151.619,172.473,71.009,172.527,71.161,2.488,-1.108e-4,2.488,-0.003,4.282,4.646,28.61,-80.6,9.792,0.358,9.958e-7,-0.336,0.006,2.65,0.811,0.818,0.003,1122.017,943.739,2.321,0.508,2.194e7,242.702,28.23,0.339,0.339,0.262,0.024,0.053,0.041,0.095,3.266e-4,0,0,0,0,-2.903e-6,0.022,0.077,0.005,87.601,0.005,1.856,14.014,995.468,339.792,0.05,0.299
1.596,160.329,175.914,68.625,175.972,68.754,2.708,-1.084e-4,2.708,-0.002,4.504,4.21,28.61,-80.6,9.792,0.268,-4.884e-6,1.614,-9.205e-4,2.649,0.81,0.818,0.003,1123.698,943.486,2.347,0.518,2.236e7,237.392,29.389,0.339,0.339,0.261,0.025,0.053,0.03,0.072,2.784e-4,0,0,0,0,6.434e-5,0.023,0.077,0.005,87.637,0.005,1.93,13.958,994.446,339.757,0.05,0.302
1.646,169.208,179.236,66.265,179.298,66.344,2.938,-1.03e-4,2.938,-0.002,4.689,3.232,28.61,-80.6,9.792,0.07,-1.689e-5,2.692,0.011,2.648,0.809,0.817,0.003,1126.716,943.232,2.389,0.528,2.277e7,232.082,30.536,0.34,0.34,0.26,0.026,0.054,0.008,0.018,2.913e-4,0,0,0,0,1.723e-4,0.023,0.077,0.005,87.752,0.004,2.14,13.9,993.405,339.722,0.05,0.306
1.696,178.25,182.441,63.901,182.504,63.943,3.176,-9.473e-5,3.176,-0.002,4.824,2.302,28.61,-80.6,9.792,0.1,-4.728e-6,-2.57,0.008,2.646,0.807,0.817,0.003,1127.006,942.978,2.396,0.537,2.316e7,226.772,31.672,0.341,0.341,0.259,0.027,0.054,0.011,0.027,-3.638e-4,0,0,0,0,-1.515e-4,0.023,0.077,0.005,87.89,0.002,2.234,13.841,992.344,339.687,0.05,0.309
1.746,187.449,185.526,61.528,185.591,61.551,3.419,-8.549e-5,3.419,-0.001,4.919,1.699,28.61,-80.6,9.792,0.189,7.515e-6,-1.529,0.007,2.645,0.806,0.816,0.003,1126.587,942.724,2.394,0.547,2.353e7,221.462,32.79,0.341,0.341,0.258,0.029,0.055,0.021,0.051,-1.056e-5,0,0,0,0,-5.189e-5,0.024,0.077,0.005,87.995,-0.008,2.202,13.782,991.265,339.651,0.05,0.313
1.796,196.799,188.493,59.148,188.559,59.165,3.667,-8e-5,3.667,-0.001,4.994,1.449,28.61,-80.6,9.792,0.21,6.908e-6,-0.064,0.002,2.643,0.804,0.816,0.003,1126.98,942.469,2.402,0.555,2.389e7,216.152,33.887,0.342,0.342,0.257,0.03,0.055,0.024,0.058,-3.348e-4,0,0,0,0,-8.845e-8,0.024,0.077,0.005,88.034,-0.019,2.177,13.721,990.169,339.614,0.05,0.315
1.846,206.295,191.341,56.76,191.408,56.785,3.919,-8.211e-5,3.919,-0.001,5.068,1.682,28.61,-80.6,9.792,0.141,5.612e-6,1.271,-0.004,2.642,0.803,0.815,0.003,1128.449,942.214,2.425,0.564,2.423e7,210.842,34.956,0.343,0.343,0.257,0.031,0.055,0.016,0.038,-2.338e-4,0,0,0,0,3.373e-5,0.025,0.077,0.005,88,-0.016,2.086,13.659,989.055,339.576,0.05,0.317
1.896,215.931,194.069,54.367,194.137,54.413,4.174,-9.042e-5,4.174,-0.001,5.164,2.237,28.61,-80.6,9.792,0.016,3.575e-6,1.879,0.029,2.641,0.802,0.815,0.003,1130.623,941.959,2.457,0.572,2.456e7,205.532,36,0.343,0.343,0.256,0.032,0.056,0.002,0.004,-3.981e-4,0,0,0,0,7.165e-5,0.025,0.077,0.005,87.915,-0.007,1.945,13.596,987.925,339.538,0.05,0.32
1.946,225.699,196.677,51.982,196.748,52.052,4.436,-1.012e-4,4.436,-0.001,5.287,2.7,28.61,-80.6,9.792,0.083,-3.977e-7,-1.595,0.003,2.639,0.8,0.815,0.003,1130.413,941.704,2.457,0.58,2.487e7,200.222,37.021,0.344,0.344,0.255,0.033,0.056,0.009,0.023,-3.006e-5,0,0,0,0,-5.026e-5,0.025,0.077,0.005,87.824,-0.007,1.887,13.533,986.779,339.5,0.05,0.323
1.996,235.596,199.167,49.617,199.241,49.699,4.703,-1.137e-4,4.703,-0.001,5.427,2.849,28.61,-80.6,9.791,0.118,7.258e-6,-0.71,-0.012,2.638,0.799,0.814,0.003,1130.586,941.448,2.463,0.587,2.517e7,194.912,38.014,0.345,0.345,0.255,0.034,0.057,0.013,0.032,1.507e-4,0,0,0,0,-9.712e-6,0.026,0.077,0.005,87.766,-0.012,1.924,13.469,985.619,339.461,0.05,0.325
2.046,245.609,201.354,43.589,201.431,43.663,4.978,-1.318e-4,4.978,-0.002,5.557,2.543,28.61,-80.6,9.791,0.099,2.184e-6,0.227,-0.019,2.637,0.798,0.814,0.003,1131.369,941.289,2.475,0.594,2.542e7,179.83,38.897,0.346,0.346,0.254,0.035,0.057,0.011,0.027,-2.893e-4,0,0,0,0,9.747e-7,0.026,0.077,0.005,87.755,-0.027,1.984,13.404,984.444,339.421,0.05,0.328
2.096,255.716,202.952,31.845,203.031,31.9,5.258,-1.612e-4,5.258,-0.002,5.657,1.869,28.61,-80.6,9.791,0.059,9.2e-6,0.907,-0.005,2.636,0.797,0.814,0.003,1132.277,941.143,2.489,0.598,2.561e7,149.424,39.541,0.346,0.346,0.254,0.035,0.057,0.007,0.016,4.635e-4,0,0,0,0,1.527e-5,0.026,0.077,0.005,87.787,-0.032,1.978,13.338,983.259,339.382,0.05,0.331
2.146,265.89,203.998,20.845,204.078,20.87,5.543,-2.042e-4,5.543,-0.002,5.719,1.019,28.61,-80.6,9.791,0.023,-6.977e-6,-1.079,-0.02,2.636,0.797,0.813,0.003,1133.001,941.035,2.5,0.602,2.572e7,120.756,39.955,0.347,0.347,0.253,0.036,0.057,0.003,0.006,1.86e-4,0,0,0,0,-2.139e-5,0.026,0.077,0.005,87.841,-0.026,2.061,13.272,982.066,339.342,0.05,0.334
2.196,276.11,204.803,16.063,204.884,16.072,5.83,-2.554e-4,5.83,-0.003,5.752,0.564,28.61,-80.6,9.791,0.073,6.022e-6,-0.643,-0.024,2.636,0.797,0.813,0.003,1132.578,940.98,2.495,0.604,2.58e7,108.42,40.268,0.347,0.347,0.253,0.036,0.057,0.008,0.021,-6.38e-5,0,0,0,0,-7.527e-6,0.026,0.077,0.005,87.887,-0.009,2.075,13.205,980.867,339.301,0.05,0.337
2.246,286.366,205.441,12.699,205.522,12.716,6.118,-3.066e-4,6.118,-0.003,5.779,0.654,28.61,-80.6,9.791,0.028,-1.357e-6,-0.168,0.007,2.635,0.796,0.813,0.003,1133.307,940.925,2.505,0.606,2.586e7,99.799,40.504,0.347,0.347,0.253,0.036,0.058,0.003,0.008,7.267e-5,0,0,0,0,-5.117e-7,0.026,0.077,0.005,87.905,0.009,1.838,13.139,979.664,339.261,0.05,0.339
2.296,296.65,205.911,9.368,205.992,9.383,6.408,-3.487e-4,6.408,-0.003,5.805,0.532,28.61,-80.6,9.791,0.028,1.763e-6,0.097,-0.017,2.635,0.796,0.813,0.003,1133.435,940.87,2.507,0.607,2.589e7,91.177,40.672,0.347,0.347,0.253,0.037,0.058,0.003,0.008,3.208e-4,0,0,0,0,1.712e-7,0.026,0.077,0.005,87.906,0.023,1.826,13.072,978.458,339.22,0.05,0.342
2.346,306.953,206.215,6.064,206.297,6.076,6.698,-3.765e-4,6.698,-0.003,5.825,0.392,28.61,-80.6,9.791,0.033,0,0.395,-0.005,2.635,0.796,0.813,0.003,1133.466,940.815,2.508,0.608,2.591e7,82.556,40.77,0.347,0.347,0.253,0.037,0.058,0.004,0.009,4.851e-4,0,0,0,0,2.797e-6,0.026,0.077,0.005,87.893,0.029,1.882,13.005,977.25,339.18,0.05,0.344
2.396,317.267,206.354,2.778,206.437,2.822,6.99,-3.889e-4,6.99,-0.003,5.844,0.492,28.61,-80.6,9.791,0.01,7.044e-6,-0.489,-0.073,2.634,0.795,0.813,0.003,1133.793,940.76,2.513,0.609,2.591e7,73.935,40.793,0.348,0.348,0.253,0.037,0.058,0.001,0.003,-3.452e-4,0,0,0,0,-4.284e-6,0.026,0.077,0.005,87.869,0.023,1.793,12.938,976.04,339.139,0.05,0.347
2.446,327.585,206.33,-0.481,206.413,0.752,7.283,-3.887e-4,7.283,-0.003,5.869,0.578,28.61,-80.6,9.791,0.051,0,-0.216,-0.006,2.634,0.795,0.813,0.003,1133.282,940.704,2.508,0.609,2.588e7,65.314,40.745,0.348,0.348,0.253,0.037,0.058,0.006,0.014,-2.114e-8,0,0,0,0,-8.338e-7,0.026,0.077,0.005,87.85,0.008,1.688,12.871,974.83,339.099,0.05,0.349
2.496,337.896,206.143,-3.702,206.227,3.716,7.577,-3.84e-4,7.577,-0.003,5.889,0.331,28.61,-80.6,9.791,0.026,1.538e-6,0.165,-0.011,2.634,0.795,0.813,0.003,1133.555,940.649,2.512,0.608,2.584e7,56.693,40.628,0.348,0.348,0.253,0.037,0.058,0.003,0.008,-4.935e-4,0,0,0,0,4.893e-7,0.026,0.077,0.005,87.85,-0.005,1.758,12.804,973.62,339.058,0.05,0.351
2.546,348.195,205.797,-6.9,205.881,6.902,7.871,-3.804e-4,7.871,-0.003,5.899,0.179,28.61,-80.6,9.791,0.02,4.423e-6,0.362,9.679e-4,2.633,0.794,0.813,0.003,1133.549,940.594,2.512,0.607,2.577e7,48.071,40.441,0.347,0.347,0.253,0.037,0.058,0.002,0.005,2.472e-4,0,0,0,0,2.369e-6,0.026,0.077,0.005,87.864,-0.01,1.707,12.737,972.413,339.017,0.05,0.354
2.596,358.472,205.29,-10.073,205.375,10.073,8.166,-3.814e-4,8.166,-0.003,5.901,0.023,28.61,-80.6,9.791,0.012,-2.506e-6,0.496,-0.007,2.633,0.794,0.813,0.003,1133.52,940.539,2.513,0.606,2.569e7,39.45,40.185,0.347,0.347,0.253,0.036,0.058,0.001,0.003,3.663e-5,0,0,0,0,4.452e-6,0.026,0.077,0.005,87.886,-0.014,1.633,12.67,971.207,338.977,0.05,0.356
2.646,368.72,204.626,-13.213,204.711,13.219,8.461,-3.86e-4,8.461,-0.003,5.888,0.407,28.61,-80.6,9.791,0.052,4.636e-7,-0.333,0.008,2.633,0.794,0.812,0.003,1132.854,940.484,2.505,0.604,2.559e7,30.829,39.867,0.347,0.347,0.254,0.036,0.057,0.006,0.015,-4.324e-4,0,0,0,0,-2.018e-6,0.026,0.077,0.005,87.91,-0.011,1.774,12.603,970.005,338.937,0.05,0.358
2.696,378.931,203.806,-16.335,203.89,16.348,8.755,-3.941e-4,8.755,-0.003,5.857,0.667,28.61,-80.6,9.791,0.082,4.363e-6,0.3,-0.005,2.633,0.794,0.812,0.003,1132.273,940.428,2.498,0.602,2.546e7,22.208,39.483,0.347,0.347,0.254,0.036,0.057,0.009,0.024,3.767e-4,0,0,0,0,1.659e-6,0.026,0.077,0.005,87.911,-0.009,1.875,12.537,968.808,338.896,0.05,0.361
2.746,389.097,202.83,-19.446,202.913,19.454,9.047,-4.042e-4,9.047,-0.003,5.823,0.534,28.61,-80.6,9.791,0.031,1.045e-5,0.79,-0.006,2.632,0.793,0.812,0.003,1132.668,940.373,2.504,0.599,2.532e7,13.587,39.033,0.347,0.347,0.254,0.035,0.057,0.004,0.009,2.368e-4,0,0,0,0,1.159e-5,0.026,0.077,0.005,87.881,-6.571e-4,1.789,12.471,967.615,338.856,0.05,0.363
2.796,399.21,201.698,-22.536,201.782,22.54,9.337,-4.124e-4,9.337,-0.003,5.797,0.414,28.61,-80.6,9.791,0.02,1.618e-6,-0.845,-0.009,2.632,0.793,0.812,0.003,1132.534,940.318,2.503,0.596,2.516e7,4.965,38.523,0.346,0.346,0.254,0.035,0.057,0.002,0.005,-1.764e-4,0,0,0,0,-1.341e-5,0.026,0.077,0.005,87.837,0.01,1.744,12.405,966.429,338.816,0.05,0.365
2.8,399.976,201.606,-24.282,201.689,24.286,9.359,-4.128e-4,9.359,-0.003,5.795,0.454,28.61,-80.6,9.791,0.025,1.706e-6,-0.843,-0.005,2.632,0.793,0.812,0.003,1132.441,940.314,2.502,0.595,2.515e7,0.327,38.482,0.346,0.346,0.254,0.035,0.057,0.003,0.007,-2.447e-4,0,0,0,0,-1.334e-5,0.026,0.077,0.005,87.834,0.011,1.741,12.4,966.34,338.813,0.004,0.368
2.806,401.124,201.467,-24.384,201.55,24.388,9.392,-4.134e-4,9.392,-0.003,5.793,0.427,28.61,-80.6,9.791,0.032,1.783e-6,-0.815,-0.005,2.632,0.793,0.812,0.003,1132.322,940.314,2.5,0.595,2.513e7,0,38.42,0.346,0.346,0.254,0.035,0.057,0.004,0.009,3.507e-4,0,0,0,0,-1.249e-5,0.026,0.077,0.005,87.829,0.012,1.731,12.393,966.205,338.809,0.006,0.382
2.814,402.844,201.259,-24.351,201.342,24.354,9.442,-4.141e-4,9.442,-0.003,5.789,0.382,28.61,-80.6,9.791,0.042,1.716e-6,-0.763,-0.002,2.632,0.793,0.812,0.003,1132.148,940.314,2.498,0.594,2.51e7,0,38.327,0.346,0.346,0.255,0.035,0.057,0.005,0.012,-2.943e-4,0,0,0,0,-1.098e-5,0.026,0.077,0.005,87.823,0.014,1.717,12.382,966.003,338.802,0.009,0.386
2.827,405.422,200.947,-24.301,201.03,24.303,9.516,-4.148e-4,9.516,-0.002,5.785,0.319,28.61,-80.6,9.791,0.055,1.577e-6,-0.656,-6.382e-4,2.632,0.793,0.812,0.003,1131.904,940.314,2.495,0.594,2.505e7,0,38.189,0.346,0.346,0.255,0.035,0.057,0.006,0.015,-6.513e-5,0,0,0,0,-8.139e-6,0.026,0.077,0.005,87.813,0.017,1.694,12.365,965.701,338.792,0.013,0.388
2.846,409.281,200.481,-24.225,200.564,24.227,9.627,-4.148e-4,9.627,-0.002,5.779,0.24,28.61,-80.6,9.791,0.072,2.286e-6,-0.452,-0.005,2.632,0.793,0.812,0.003,1131.58,940.314,2.49,0.592,2.499e7,0,37.983,0.346,0.346,0.255,0.034,0.057,0.008,0.02,-3.248e-4,0,0,0,0,-3.878e-6,0.026,0.077,0.005,87.803,0.019,1.661,12.34,965.248,338.777,0.019,0.391
2.875,415.053,199.784,-24.108,199.867,24.11,9.794,-4.122e-4,9.794,-0.002,5.772,0.263,28.61,-80.6,9.791,0.067,2.238e-6,-0.117,-0.008,2.632,0.793,0.812,0.003,1131.471,940.314,2.489,0.59,2.489e7,0,37.677,0.346,0.346,0.255,0.034,0.057,0.008,0.018,2.009e-4,0,0,0,0,-2.622e-7,0.026,0.077,0.005,87.795,0.02,1.687,12.302,964.571,338.754,0.029,0.393
2.918,423.673,198.745,-23.932,198.828,23.935,10.043,-4.029e-4,10.043,-0.002,5.759,0.383,28.61,-80.6,9.791,0.04,0,0.262,0.008,2.632,0.793,0.812,0.003,1131.556,940.314,2.49,0.587,2.474e7,0,37.225,0.345,0.345,0.255,0.034,0.057,0.005,0.011,-2.543e-4,0,0,0,0,1.332e-6,0.025,0.077,0.005,87.799,0.018,1.743,12.246,963.56,338.72,0.043,0.396
2.968,433.58,197.553,-23.731,197.636,23.736,10.331,-3.851e-4,10.331,-0.002,5.735,0.523,28.61,-80.6,9.791,0.007,1.038e-6,0.401,0.043,2.632,0.793,0.812,0.003,1131.683,940.314,2.492,0.584,2.457e7,0,36.711,0.345,0.345,0.256,0.033,0.056,8.31e-4,0.002,-1.186e-4,0,0,0,0,3.144e-6,0.025,0.077,0.005,87.817,0.018,1.774,12.182,962.398,338.681,0.05,0.398
3.018,443.428,196.371,-23.536,196.454,23.543,10.617,-3.603e-4,10.617,-0.002,5.707,0.599,28.61,-80.6,9.791,0.012,3.927e-6,-0.39,0.005,2.632,0.793,0.812,0.003,1131.34,940.314,2.487,0.58,2.441e7,0,36.206,0.345,0.345,0.256,0.033,0.056,0.001,0.003,4.936e-5,0,0,0,0,-3.018e-6,0.025,0.077,0.005,87.839,0.019,1.748,12.118,961.243,338.642,0.05,0.401
3.068,453.218,195.199,-23.344,195.282,23.354,10.901,-3.292e-4,10.901,-0.002,5.675,0.681,28.61,-80.6,9.791,0.034,3.574e-6,-0.251,-0.002,2.632,0.793,0.812,0.003,1130.799,940.314,2.48,0.577,2.424e7,0,35.71,0.345,0.345,0.256,0.032,0.056,0.004,0.009,-4.066e-4,0,0,0,0,-1.263e-6,0.025,0.077,0.005,87.856,0.017,1.75,12.054,960.095,338.604,0.05,0.403
3.118,462.948,194.037,-23.157,194.119,23.169,11.184,-2.935e-4,11.184,-0.002,5.639,0.745,28.61,-80.6,9.791,0.05,2.306e-6,0.114,-0.005,2.632,0.793,0.812,0.003,1130.323,940.314,2.474,0.574,2.408e7,0,35.223,0.344,0.344,0.257,0.032,0.056,0.006,0.014,-1.09e-4,0,0,0,0,2.629e-7,0.025,0.077,0.005,87.859,0.006,1.79,11.991,958.954,338.565,0.05,0.406
3.168,472.621,192.884,-22.976,192.965,22.987,11.465,-2.576e-4,11.465,-0.001,5.602,0.698,28.61,-80.6,9.791,0.041,4.372e-6,0.476,0.009,2.632,0.793,0.812,0.003,1130.174,940.314,2.472,0.57,2.392e7,0,34.745,0.344,0.344,0.257,0.031,0.056,0.005,0.011,4.314e-4,0,0,0,0,4.646e-6,0.025,0.077,0.005,87.844,-0.006,1.8,11.928,957.819,338.527,0.05,0.408
3.218,482.237,191.739,-22.8,191.82,22.809,11.744,-2.247e-4,11.744,-0.001,5.57,0.636,28.61,-80.6,9.791,0.027,2.644e-6,0.672,0.024,2.632,0.793,0.812,0.003,1130.087,940.314,2.471,0.567,2.376e7,0,34.275,0.344,0.344,0.257,0.031,0.056,0.003,0.007,-6.293e-5,0,0,0,0,9.376e-6,0.025,0.077,0.005,87.813,-0.012,1.84,11.865,956.692,338.489,0.05,0.41
3.268,491.795,190.604,-22.627,190.684,22.634,12.022,-1.969e-4,12.022,-9.382e-4,5.538,0.585,28.61,-80.6,9.791,0.015,-1.197e-6,0.919,0.058,2.632,0.793,0.812,0.003,1129.985,940.314,2.47,0.564,2.36e7,0,33.815,0.343,0.343,0.258,0.031,0.055,0.002,0.004,-1.228e-4,0,0,0,0,1.777e-5,0.024,0.077,0.005,87.773,-0.014,1.925,11.803,955.571,338.452,0.05,0.413
3.318,501.297,189.476,-22.459,189.557,22.464,12.298,-1.752e-4,12.298,-8.164e-4,5.512,0.472,28.61,-80.6,9.791,0.013,-1.19e-6,-0.857,0.054,2.632,0.793,0.812,0.003,1129.752,940.314,2.467,0.56,2.344e7,0,33.362,0.343,0.343,0.258,0.03,0.055,0.001,0.004,-2.945e-5,0,0,0,0,-1.561e-5,0.024,0.077,0.005,87.728,-0.011,1.958,11.742,954.463,338.414,0.05,0.415
3.368,510.743,188.358,-22.291,188.438,22.296,12.573,-1.582e-4,12.573,-7.207e-4,5.49,0.46,28.61,-80.6,9.791,0.017,3.815e-6,-0.737,0.012,2.632,0.793,0.812,0.003,1129.46,940.314,2.463,0.557,2.329e7,0,32.919,0.343,0.343,0.258,0.03,0.055,0.002,0.005,-4.748e-4,0,0,0,0,-1.169e-5,0.024,0.077,0.005,87.687,-0.006,2.059,11.68,953.408,338.377,0.05,0.418
3.418,520.133,187.247,-22.127,187.327,22.131,12.847,-1.432e-4,12.847,-6.385e-4,5.466,0.413,28.61,-80.6,9.791,0.029,4.82e-6,-0.657,0.003,2.632,0.793,0.812,0.003,1129.069,940.314,2.458,0.554,2.313e7,0,32.482,0.343,0.343,0.259,0.029,0.055,0.003,0.008,-2.873e-4,0,0,0,0,-9.405e-6,0.024,0.077,0.005,87.653,0.002,2.116,11.619,952.359,338.34,0.05,0.422
3.468,529.468,186.145,-21.971,186.225,21.972,13.12,-1.268e-4,13.12,-5.539e-4,5.45,0.231,28.61,-80.6,9.791,0.074,2.015e-6,-0.263,0.017,2.632,0.793,0.812,0.003,1128.273,940.314,2.447,0.551,2.298e7,0,32.051,0.343,0.343,0.259,0.029,0.055,0.008,0.02,1.25e-4,0,0,0,0,-1.522e-6,0.024,0.077,0.005,87.63,0.017,2.008,11.558,951.316,338.303,0.05,0.427
3.518,538.748,185.05,-21.81,185.13,21.811,13.392,-1.043e-4,13.392,-4.461e-4,5.441,0.236,28.61,-80.6,9.791,0.072,3.706e-6,0.383,0.022,2.632,0.793,0.812,0.003,1128.065,940.314,2.445,0.547,2.283e7,0,31.628,0.342,0.342,0.259,0.029,0.055,0.008,0.02,2.109e-4,0,0,0,0,3.275e-6,0.024,0.077,0.005,87.632,0.034,1.971,11.498,950.279,338.267,0.05,0.431
3.568,547.973,183.964,-21.641,184.044,21.647,13.664,-6.988e-5,13.664,-2.93e-4,5.423,0.499,28.61,-80.6,9.791,0.003,2.533e-6,0.485,0.329,2.632,0.793,0.812,0.003,1128.688,940.314,2.453,0.544,2.268e7,0,31.214,0.342,0.342,0.259,0.028,0.054,3.314e-4,7.463e-4,4.401e-4,0,0,0,0,5.304e-6,0.024,0.077,0.005,87.658,0.044,2.099,11.438,949.249,338.23,0.05,0.436
3.618,557.144,182.886,-21.479,182.966,21.49,13.934,-2.109e-5,13.934,-8.671e-5,5.392,0.661,28.61,-80.6,9.79,0.043,4.831e-6,-0.366,0.008,2.632,0.793,0.812,0.003,1127.969,940.314,2.443,0.541,2.253e7,0,30.806,0.342,0.342,0.26,0.028,0.054,0.005,0.012,2.93e-4,0,0,0,0,-3.063e-6,0.023,0.077,0.005,87.684,0.042,2.149,11.379,948.224,338.194,0.05,0.439
3.668,566.262,181.816,-21.326,181.895,21.336,14.203,4.025e-5,14.203,1.624e-4,5.359,0.672,28.61,-80.6,9.79,0.049,4.444e-6,-0.093,0.005,2.632,0.793,0.812,0.003,1127.676,940.314,2.44,0.538,2.238e7,0,30.403,0.342,0.342,0.26,0.027,0.054,0.005,0.013,4.228e-4,0,0,0,0,-1.999e-7,0.023,0.077,0.005,87.696,0.03,2.111,11.319,947.205,338.158,0.05,0.441
3.718,575.326,180.753,-21.176,180.832,21.186,14.47,1.09e-4,14.47,4.318e-4,5.325,0.66,28.61,-80.6,9.79,0.048,3.308e-6,0.229,0.009,2.632,0.793,0.812,0.003,1127.472,940.314,2.437,0.535,2.224e7,0,30.007,0.342,0.342,0.26,0.027,0.054,0.005,0.013,-4.115e-4,0,0,0,0,1.225e-6,0.023,0.077,0.005,87.693,0.014,2.11,11.26,946.193,338.123,0.05,0.444
3.768,584.337,179.698,-21.03,179.776,21.038,14.736,1.792e-4,14.736,6.968e-4,5.293,0.594,28.61,-80.6,9.79,0.031,3.359e-6,0.487,0.009,2.632,0.793,0.812,0.003,1127.464,940.314,2.437,0.532,2.209e7,0,29.618,0.341,0.341,0.261,0.027,0.054,0.003,0.009,2.059e-4,0,0,0,0,5.613e-6,0.023,0.077,0.005,87.674,-0.002,2.102,11.202,945.186,338.087,0.05,0.448
3.818,593.296,178.65,-20.887,178.728,20.894,15,2.458e-4,15,9.388e-4,5.266,0.515,28.61,-80.6,9.79,0.01,-7.978e-7,0.6,0.059,2.632,0.793,0.812,0.003,1127.511,940.314,2.437,0.529,2.195e7,0,29.234,0.341,0.341,0.261,0.026,0.054,0.001,0.002,-3.85e-4,0,0,0,0,8.623e-6,0.023,0.077,0.005,87.646,-0.01,2.108,11.144,944.185,338.052,0.05,0.452
3.868,602.203,177.61,-20.745,177.687,20.751,15.262,3.057e-4,15.262,0.001,5.241,0.494,28.61,-80.6,9.79,0.004,4.836e-6,0.621,0.124,2.632,0.793,0.812,0.003,1127.377,940.314,2.436,0.526,2.18e7,0,28.858,0.341,0.341,0.261,0.026,0.054,4.731e-4,0.001,4.102e-4,0,0,0,0,9.332e-6,0.023,0.077,0.005,87.614,-0.014,2.17,11.086,943.19,338.017,0.05,0.454
3.918,611.057,176.576,-20.604,176.653,20.61,15.524,3.587e-4,15.524,0.001,5.217,0.491,28.61,-80.6,9.79,0.003,4.586e-6,0.647,0.146,2.632,0.793,0.812,0.003,1127.185,940.314,2.433,0.523,2.166e7,0,28.487,0.341,0.341,0.262,0.026,0.053,3.8e-4,0.001,4.324e-4,0,0,0,0,1.024e-5,0.023,0.077,0.005,87.581,-0.012,2.253,11.028,942.2,337.982,0.05,0.459
3.968,619.86,175.549,-20.466,175.626,20.472,15.784,4.061e-4,15.784,0.001,5.192,0.477,28.61,-80.6,9.79,0.001,2.835e-6,-0.483,0.464,2.632,0.793,0.812,0.003,1127.015,940.314,2.431,0.52,2.152e7,0,28.123,0.341,0.341,0.262,0.026,0.053,1.216e-4,-1.583e-4,2.694e-4,0,0,0,0,-5.769e-6,0.022,0.077,0.005,87.548,-0.007,2.323,10.971,941.217,337.947,0.05,0.462
4.018,628.612,174.529,-20.33,174.606,20.335,16.043,4.492e-4,16.043,0.002,5.169,0.467,28.61,-80.6,9.79,0.004,1.064e-6,-0.66,0.098,2.632,0.793,0.812,0.003,1126.787,940.314,2.428,0.517,2.138e7,0,27.764,0.341,0.341,0.262,0.025,0.053,4.216e-4,0.001,3.629e-4,0,0,0,0,-1.092e-5,0.022,0.077,0.005,87.514,-0.003,2.395,10.914,940.239,337.913,0.05,0.465
4.068,637.313,173.516,-20.197,173.592,20.201,16.301,4.895e-4,16.301,0.002,5.146,0.442,28.61,-80.6,9.79,0.011,5.899e-6,-0.627,0.001,2.632,0.793,0.812,0.003,1126.505,940.314,2.424,0.514,2.125e7,0,27.41,0.34,0.34,0.263,0.025,0.053,0.001,0.003,7.017e-5,0,0,0,0,-9.954e-6,0.022,0.077,0.005,87.482,0.003,2.45,10.857,939.267,337.879,0.05,0.468
4.118,645.964,172.509,-20.069,172.586,20.071,16.558,5.3e-4,16.558,0.002,5.126,0.323,28.61,-80.6,9.79,0.046,3.334e-6,-0.527,0.01,2.632,0.793,0.812,0.003,1125.888,940.314,2.416,0.511,2.111e7,0,27.06,0.34,0.34,0.263,0.025,0.053,0.005,0.012,2.769e-4,0,0,0,0,-7.134e-6,0.022,0.077,0.005,87.453,0.016,2.407,10.801,938.3,337.844,0.05,0.472
4.168,654.564,171.509,-19.945,171.585,19.946,16.814,5.745e-4,16.814,0.002,5.115,0.148,28.61,-80.6,9.79,0.098,4.89e-6,-0.043,-0.001,2.632,0.793,0.812,0.003,1125.08,940.314,2.406,0.508,2.097e7,0,26.715,0.34,0.34,0.263,0.024,0.053,0.011,0.026,4.098e-4,0,0,0,0,-4.803e-8,0.022,0.077,0.005,87.438,0.029,2.26,10.745,937.34,337.811,0.05,0.476
4.218,663.115,170.515,-19.817,170.592,19.817,17.069,6.272e-4,17.069,0.002,5.109,0.131,28.61,-80.6,9.79,0.102,3.016e-6,0.554,0.013,2.632,0.793,0.812,0.003,1124.849,940.314,2.403,0.505,2.084e7,0,26.375,0.34,0.34,0.264,0.024,0.053,0.011,0.027,-5.371e-5,0,0,0,0,8.069e-6,0.022,0.077,0.005,87.451,0.034,2.176,10.69,936.384,337.777,0.05,0.478
4.268,671.616,169.527,-19.684,169.604,19.685,17.324,6.891e-4,17.324,0.002,5.1,0.257,28.61,-80.6,9.79,0.061,2.478e-6,1.021,0.015,2.632,0.793,0.812,0.003,1125.165,940.314,2.407,0.502,2.07e7,0,26.04,0.34,0.34,0.264,0.024,0.052,0.007,0.016,-2.308e-4,0,0,0,0,2.77e-5,0.022,0.077,0.005,87.491,0.033,2.148,10.634,935.435,337.743,0.05,0.481
4.318,680.068,168.547,-19.549,168.623,19.555,17.579,7.595e-4,17.579,0.002,5.082,0.465,28.61,-80.6,9.79,0.008,9.815e-7,-1.176,0.121,2.632,0.793,0.812,0.003,1125.634,940.314,2.413,0.5,2.057e7,0,25.711,0.34,0.34,0.264,0.023,0.052,9.011e-4,0.002,-3.644e-5,0,0,0,0,-3.716e-5,0.022,0.077,0.005,87.548,0.029,2.163,10.58,934.49,337.71,0.05,0.483
4.368,688.471,167.573,-19.417,167.649,19.429,17.832,8.36e-4,17.832,0.003,5.052,0.704,28.61,-80.6,9.79,0.088,3.473e-6,-0.918,0.019,2.632,0.793,0.812,0.003,1124.498,940.314,2.398,0.497,2.044e7,0,25.388,0.34,0.34,0.264,0.023,0.052,0.01,0.024,-9.65e-5,0,0,0,0,-2.29e-5,0.021,0.077,0.005,87.602,0.016,2.228,10.525,933.551,337.677,0.05,0.496
4.418,696.825,166.605,-19.292,166.68,19.308,18.084,9.141e-4,18.084,0.003,5.013,0.796,28.61,-80.6,9.79,0.122,4.084e-6,-0.261,0.013,2.632,0.793,0.812,0.003,1123.928,940.314,2.391,0.494,2.03e7,0,25.07,0.34,0.34,0.265,0.023,0.052,0.014,0.032,-2.727e-4,0,0,0,0,-1.873e-6,0.021,0.077,0.005,87.633,-9.519e-4,2.236,10.471,932.618,337.644,0.05,0.499
4.468,705.131,165.643,-19.173,165.718,19.188,18.334,9.888e-4,18.334,0.003,4.975,0.757,28.61,-80.6,9.79,0.112,5.508e-6,0.26,0.014,2.632,0.793,0.812,0.003,1123.872,940.314,2.39,0.491,2.017e7,0,24.754,0.34,0.34,0.265,0.023,0.052,0.013,0.03,-4.524e-4,0,0,0,0,1.877e-6,0.021,0.077,0.005,87.631,-0.016,2.2,10.417,931.69,337.611,0.05,0.503
4.518,713.39,164.688,-19.057,164.762,19.071,18.582,0.001,18.582,0.003,4.937,0.727,28.61,-80.6,9.79,0.104,3.27e-6,0.919,0.021,2.632,0.793,0.812,0.003,1123.807,940.314,2.389,0.488,2.005e7,0,24.445,0.34,0.34,0.265,0.022,0.052,0.012,0.028,-5.598e-6,0,0,0,0,2.38e-5,0.021,0.077,0.005,87.601,-0.024,2.266,10.363,930.767,337.579,0.05,0.506
4.568,721.6,163.737,-18.947,163.811,18.955,18.828,0.001,18.828,0.003,4.904,0.569,28.61,-80.6,9.79,0.052,2.546e-6,1.291,0.035,2.632,0.793,0.812,0.003,1124.268,940.314,2.395,0.486,1.992e7,0,24.138,0.339,0.34,0.266,0.022,0.052,0.006,0.013,-6.056e-5,0,0,0,0,4.744e-5,0.021,0.077,0.005,87.544,-0.026,2.264,10.31,929.85,337.547,0.05,0.51
4.618,729.763,162.793,-18.836,162.866,18.842,19.072,0.001,19.072,0.003,4.879,0.472,28.61,-80.6,9.79,0.018,2.249e-6,1.422,0.094,2.632,0.793,0.812,0.003,1124.517,940.314,2.398,0.483,1.979e7,0,23.838,0.339,0.339,0.266,0.022,0.052,0.002,0.004,4.983e-4,0,0,0,0,5.826e-5,0.021,0.077,0.005,87.474,-0.021,2.349,10.257,928.938,337.514,0.05,0.513
4.668,737.88,161.854,-18.729,161.927,18.732,19.316,0.001,19.316,0.004,4.857,0.368,28.61,-80.6,9.79,0.02,8.843e-6,-1.522,0.044,2.632,0.793,0.812,0.003,1124.329,940.314,2.396,0.48,1.966e7,0,23.542,0.339,0.339,0.266,0.022,0.051,0.002,0.006,-3.41e-4,0,0,0,0,-6.753e-5,0.021,0.077,0.005,87.4,-0.006,2.437,10.204,928.031,337.482,0.05,0.515
4.718,745.949,160.92,-18.628,160.993,18.629,19.558,0.001,19.558,0.004,4.845,0.131,28.61,-80.6,9.79,0.104,7.347e-6,-1.194,0.013,2.632,0.793,0.812,0.003,1123.174,940.314,2.381,0.477,1.954e7,0,23.249,0.339,0.339,0.267,0.021,0.051,0.012,0.028,1.34e-4,0,0,0,0,-4.202e-5,0.021,0.077,0.005,87.331,0.015,2.359,10.151,927.13,337.451,0.05,0.519
4.768,753.972,159.991,-18.525,160.064,18.525,19.8,0.001,19.8,0.004,4.843,0.017,28.61,-80.6,9.79,0.156,1.481e-6,-0.509,0.013,2.632,0.793,0.812,0.003,1122.397,940.314,2.371,0.475,1.941e7,0,22.96,0.339,0.339,0.267,0.021,0.051,0.017,0.041,2.838e-4,0,0,0,0,-7.728e-6,0.02,0.077,0.005,87.288,0.033,2.293,10.099,926.233,337.419,0.05,0.521
4.818,761.948,159.067,-18.416,159.141,18.416,20.042,0.001,20.042,0.004,4.844,0.011,28.61,-80.6,9.79,0.148,4.344e-6,0.251,0.002,2.632,0.793,0.812,0.003,1122.346,940.314,2.37,0.472,1.929e7,0,22.675,0.339,0.339,0.267,0.021,0.051,0.017,0.039,2.093e-4,0,0,0,0,1.906e-6,0.02,0.077,0.005,87.282,0.043,2.296,10.047,925.342,337.388,0.05,0.523
4.868,769.879,158.15,-18.301,158.224,18.302,20.285,0.001,20.285,0.004,4.84,0.171,28.61,-80.6,9.79,0.089,6.324e-6,0.831,0.016,2.632,0.793,0.812,0.003,1122.887,940.314,2.377,0.469,1.916e7,0,22.393,0.339,0.339,0.267,0.021,0.051,0.01,0.024,3.609e-4,0,0,0,0,2.109e-5,0.02,0.077,0.005,87.311,0.046,2.343,9.996,924.456,337.356,0.05,0.525
4.918,777.763,157.237,-18.187,157.311,18.19,20.526,0.001,20.526,0.004,4.826,0.346,28.61,-80.6,9.79,0.022,6.161e-6,1.033,0.041,2.632,0.793,0.812,0.003,1123.532,940.314,2.386,0.467,1.904e7,0,22.116,0.339,0.339,0.268,0.02,0.051,0.002,0.006,2.623e-4,0,0,0,0,3.297e-5,0.02,0.077,0.005,87.36,0.037,2.368,9.945,923.575,337.325,0.05,0.527
4.968,785.602,156.331,-18.077,156.405,18.083,20.767,0.002,20.767,0.004,4.806,0.485,28.61,-80.6,9.79,0.034,-2.717e-6,-1.085,0.039,2.632,0.793,0.812,0.003,1123.249,940.314,2.382,0.464,1.892e7,0,21.843,0.339,0.339,0.268,0.02,0.051,0.004,0.009,1.953e-4,0,0,0,0,-3.677e-5,0.02,0.077,0.005,87.414,0.02,2.347,9.894,922.699,337.294,0.05,0.53
5.018,793.396,155.43,-17.968,155.503,17.979,21.007,0.002,21.007,0.004,4.777,0.623,28.61,-80.6,9.79,0.089,1.38e-6,-0.724,0.017,2.632,0.793,0.812,0.003,1122.439,940.314,2.371,0.461,1.88e7,0,21.574,0.339,0.339,0.268,0.02,0.051,0.01,0.023,-5.442e-5,0,0,0,0,-1.658e-5,0.02,0.077,0.005,87.461,-0.001,2.365,9.843,921.829,337.264,0.05,0.532
5.068,801.145,154.534,-17.866,154.607,17.878,21.245,0.002,21.245,0.005,4.746,0.645,28.61,-80.6,9.79,0.102,4.459e-6,-0.326,0.003,2.632,0.793,0.812,0.003,1122.145,940.314,2.368,0.459,1.868e7,0,21.307,0.339,0.339,0.269,0.02,0.051,0.011,0.027,-4.547e-5,0,0,0,0,-3.406e-6,0.02,0.077,0.005,87.487,-0.02,2.312,9.793,920.963,337.233,0.05,0.534
5.118,808.85,153.643,-17.767,153.715,17.778,21.481,0.002,21.481,0.005,4.713,0.617,28.61,-80.6,9.79,0.095,3.7e-6,0.16,0.006,2.632,0.793,0.812,0.003,1122.09,940.314,2.367,0.456,1.856e7,0,21.044,0.339,0.339,0.269,0.02,0.05,0.011,0.025,4.768e-4,0,0,0,0,8.267e-7,0.02,0.077,0.005,87.491,-0.03,2.276,9.742,920.102,337.203,0.05,0.536
5.168,816.51,152.757,-17.672,152.829,17.68,21.716,0.002,21.716,0.005,4.685,0.523,28.61,-80.6,9.79,0.06,1.498e-6,0.452,1.591e-4,2.632,0.793,0.812,0.003,1122.355,940.314,2.37,0.454,1.844e7,0,20.784,0.339,0.339,0.269,0.019,0.05,0.007,0.015,-4.099e-4,0,0,0,0,6.677e-6,0.02,0.077,0.005,87.474,-0.027,2.211,9.693,919.246,337.173,0.05,0.538
5.218,824.126,151.876,-17.578,151.947,17.584,21.95,0.002,21.95,0.005,4.66,0.457,28.61,-80.6,9.79,0.035,2.798e-6,0.706,0.001,2.632,0.793,0.812,0.003,1122.514,940.314,2.372,0.451,1.832e7,0,20.529,0.339,0.339,0.27,0.019,0.05,0.004,0.009,1.553e-4,0,0,0,0,1.647e-5,0.019,0.077,0.005,87.445,-0.016,2.211,9.643,918.395,337.143,0.05,0.539
5.268,831.697,150.999,-17.487,151.07,17.49,22.182,0.002,22.182,0.005,4.64,0.355,28.61,-80.6,9.79,0.005,2.084e-6,-0.74,0.064,2.632,0.793,0.812,0.003,1122.735,940.314,2.375,0.448,1.821e7,0,20.276,0.339,0.339,0.27,0.019,0.05,5.58e-4,0.001,7.47e-5,0,0,0,0,-1.833e-5,0.019,0.077,0.005,87.408,0.003,2.181,9.594,917.549,337.113,0.05,0.542
5.318,839.226,150.127,-17.396,150.198,17.398,22.414,0.002,22.414,0.005,4.625,0.261,28.61,-80.6,9.79,0.043,3.56e-6,-0.668,0.01,2.632,0.793,0.812,0.003,1122.144,940.314,2.368,0.446,1.809e7,0,20.027,0.339,0.339,0.27,0.019,0.05,0.005,0.011,4.455e-4,0,0,0,0,-1.51e-5,0.019,0.077,0.005,87.371,0.024,2.153,9.545,916.708,337.083,0.05,0.544
5.368,846.71,149.26,-17.306,149.331,17.307,22.645,0.002,22.645,0.005,4.614,0.189,28.61,-80.6,9.79,0.073,2.656e-6,-0.39,0.009,2.632,0.793,0.812,0.003,1121.659,940.314,2.361,0.443,1.798e7,0,19.781,0.339,0.339,0.27,0.018,0.05,0.008,0.019,4.567e-4,0,0,0,0,-5.22e-6,0.019,0.077,0.005,87.344,0.043,2.117,9.496,915.872,337.054,0.05,0.546
5.418,854.152,148.396,-17.215,148.468,17.216,22.875,0.002,22.875,0.005,4.605,0.163,28.61,-80.6,9.79,0.083,3.633e-6,-0.092,3.052e-4,2.632,0.793,0.812,0.003,1121.404,940.314,2.358,0.441,1.786e7,0,19.539,0.339,0.339,0.271,0.018,0.05,0.009,0.021,1.268e-4,0,0,0,0,-2.928e-7,0.019,0.077,0.005,87.332,0.053,2.094,9.448,915.041,337.024,0.05,0.548
5.468,861.55,147.538,-17.125,147.61,17.126,23.105,0.002,23.105,0.005,4.598,0.131,28.61,-80.6,9.79,0.096,2.752e-6,0.279,-0.005,2.632,0.793,0.812,0.003,1121.124,940.314,2.354,0.438,1.775e7,0,19.299,0.339,0.339,0.271,0.018,0.05,0.011,0.025,2.301e-4,0,0,0,0,2.734e-6,0.019,0.077,0.005,87.337,0.052,2.016,9.4,914.214,336.995,0.05,0.551
5.518,868.906,146.684,-17.035,146.756,17.035,23.335,0.002,23.335,0.006,4.591,0.131,28.61,-80.6,9.79,0.093,1.498e-6,0.663,-0.008,2.632,0.793,0.812,0.003,1121.019,940.314,2.353,0.436,1.763e7,0,19.062,0.339,0.339,0.271,0.018,0.05,0.01,0.024,9.267e-6,0,0,0,0,1.558e-5,0.019,0.077,0.005,87.362,0.041,1.928,9.352,913.392,336.966,0.05,0.552
5.568,876.218,145.834,-16.943,145.907,16.944,23.564,0.002,23.564,0.006,4.584,0.183,28.61,-80.6,9.79,0.068,4.459e-6,1.017,-0.004,2.632,0.793,0.812,0.003,1121.185,940.314,2.355,0.433,1.752e7,0,18.828,0.339,0.339,0.272,0.018,0.05,0.008,0.018,-4.785e-4,0,0,0,0,3.711e-5,0.019,0.077,0.005,87.404,0.027,1.854,9.305,912.575,336.937,0.05,0.555
5.618,883.489,144.99,-16.85,145.062,16.853,23.793,0.002,23.793,0.006,4.572,0.31,28.61,-80.6,9.789,0.01,5.538e-6,1.17,-0.019,2.632,0.793,0.812,0.003,1121.753,940.314,2.362,0.431,1.741e7,0,18.597,0.339,0.339,0.272,0.018,0.049,0.001,0.002,-2.835e-4,0,0,0,0,4.968e-5,0.019,0.077,0.005,87.46,0.015,1.838,9.257,911.763,336.909,0.05,0.557
5.668,890.717,144.15,-16.757,144.221,16.763,24.021,0.003,24.021,0.006,4.552,0.465,28.61,-80.6,9.789,0.063,3.695e-6,-1.057,-9.207e-4,2.632,0.793,0.812,0.003,1120.992,940.314,2.353,0.428,1.73e7,0,18.371,0.339,0.339,0.272,0.017,0.049,0.007,0.017,-4.067e-4,0,0,0,0,-4.105e-5,0.018,0.077,0.005,87.517,0.006,1.861,9.21,910.955,336.88,0.05,0.559
5.718,897.904,143.314,-16.667,143.385,16.677,24.248,0.003,24.248,0.006,4.526,0.592,28.61,-80.6,9.789,0.124,3.796e-6,-0.689,4.611e-4,2.632,0.793,0.812,0.003,1120.151,940.314,2.342,0.426,1.719e7,0,18.147,0.339,0.339,0.273,0.017,0.049,0.014,0.033,3.423e-5,0,0,0,0,-1.765e-5,0.018,0.077,0.005,87.561,-0.003,1.892,9.164,910.152,336.852,0.05,0.561
5.768,905.049,142.483,-16.581,142.554,16.593,24.474,0.003,24.474,0.006,4.494,0.64,28.61,-80.6,9.789,0.15,2.605e-6,-0.157,0.006,2.632,0.793,0.812,0.003,1119.733,940.314,2.336,0.423,1.708e7,0,17.926,0.339,0.339,0.273,0.017,0.049,0.017,0.039,1.632e-4,0,0,0,0,-9.309e-7,0.018,0.077,0.005,87.583,-0.009,1.896,9.117,909.354,336.824,0.05,0.563
5.818,912.152,141.656,-16.5,141.726,16.51,24.698,0.003,24.698,0.006,4.463,0.584,28.61,-80.6,9.789,0.128,2.93e-6,0.378,0.006,2.632,0.793,0.812,0.003,1119.866,940.314,2.338,0.421,1.697e7,0,17.707,0.339,0.339,0.273,0.017,0.049,0.014,0.033,3.26e-4,0,0,0,0,5.441e-6,0.018,0.077,0.005,87.577,-0.011,1.848,9.071,908.56,336.796,0.05,0.566
5.868,919.215,140.833,-16.423,140.903,16.429,24.92,0.003,24.92,0.007,4.437,0.439,28.61,-80.6,9.789,0.063,7.535e-7,0.748,0.005,2.632,0.793,0.812,0.003,1120.498,940.314,2.346,0.419,1.686e7,0,17.489,0.339,0.339,0.273,0.017,0.049,0.007,0.017,4.054e-5,0,0,0,0,2.156e-5,0.018,0.077,0.005,87.548,-0.009,1.75,9.025,907.771,336.768,0.05,0.568
5.918,926.236,140.013,-16.346,140.083,16.349,25.142,0.003,25.142,0.007,4.419,0.339,28.61,-80.6,9.789,0.017,1.324e-6,0.798,0.033,2.632,0.793,0.812,0.003,1120.928,940.314,2.352,0.416,1.675e7,0,17.275,0.339,0.339,0.274,0.016,0.049,0.002,0.004,-4.854e-4,0,0,0,0,2.479e-5,0.018,0.077,0.005,87.507,-0.005,1.712,8.979,906.987,336.74,0.05,0.571
5.968,933.216,139.198,-16.265,139.268,16.269,25.362,0.003,25.362,0.007,4.401,0.374,28.61,-80.6,9.789,0.033,3.944e-6,0.94,0.012,2.632,0.793,0.812,0.003,1120.62,940.314,2.348,0.414,1.665e7,0,17.066,0.339,0.339,0.274,0.016,0.049,0.004,0.008,-4.217e-4,0,0,0,0,3.484e-5,0.018,0.077,0.005,87.464,-4.727e-4,1.847,8.934,906.207,336.713,0.05,0.573
6.018,940.156,138.387,-16.186,138.456,16.19,25.582,0.003,25.582,0.007,4.383,0.358,28.61,-80.6,9.789,0.025,7.325e-6,1.025,0.006,2.632,0.793,0.812,0.003,1120.602,940.314,2.348,0.411,1.654e7,0,16.859,0.339,0.339,0.274,0.016,0.049,0.003,0.006,1.301e-4,0,0,0,0,4.185e-5,0.018,0.077,0.005,87.415,0.006,1.926,8.889,905.432,336.686,0.05,0.575
6.068,947.055,137.58,-16.11,137.649,16.113,25.801,0.003,25.801,0.007,4.365,0.336,28.61,-80.6,9.789,0.013,6.245e-6,1.103,-0.02,2.632,0.793,0.812,0.003,1120.623,940.314,2.348,0.409,1.644e7,0,16.655,0.339,0.339,0.275,0.016,0.049,0.001,0.004,4.422e-4,0,0,0,0,4.906e-5,0.018,0.077,0.005,87.361,0.015,2.008,8.844,904.661,336.658,0.05,0.578
6.118,953.914,136.776,-16.035,136.845,16.038,26.018,0.003,26.018,0.007,4.35,0.277,28.61,-80.6,9.789,0.017,3.796e-6,-1.114,-0.031,2.632,0.793,0.812,0.003,1120.462,940.314,2.346,0.407,1.633e7,0,16.452,0.339,0.339,0.275,0.016,0.049,0.002,0.004,-7.518e-5,0,0,0,0,-5.067e-5,0.018,0.077,0.005,87.305,0.025,2.046,8.8,903.895,336.631,0.05,0.58
6.168,960.732,135.976,-15.963,136.045,15.964,26.236,0.003,26.236,0.007,4.338,0.2,28.61,-80.6,9.789,0.057,4.248e-6,-0.964,-0.014,2.632,0.793,0.812,0.003,1119.883,940.314,2.338,0.404,1.623e7,0,16.252,0.339,0.339,0.275,0.016,0.048,0.006,0.015,1.958e-4,0,0,0,0,-3.84e-5,0.017,0.077,0.005,87.253,0.032,2.05,8.755,903.133,336.605,0.05,0.582
6.218,967.511,135.18,-15.889,135.249,15.89,26.452,0.003,26.452,0.007,4.329,0.171,28.61,-80.6,9.789,0.072,1.419e-6,-0.745,-0.005,2.632,0.793,0.812,0.003,1119.588,940.314,2.334,0.402,1.612e7,0,16.054,0.339,0.339,0.275,0.015,0.048,0.008,0.018,-4.461e-4,0,0,0,0,-2.318e-5,0.017,0.077,0.005,87.21,0.034,2.086,8.711,902.375,336.578,0.05,0.584
6.268,974.25,134.387,-15.816,134.457,15.817,26.668,0.003,26.668,0.007,4.321,0.149,28.61,-80.6,9.789,0.084,3.037e-6,-0.519,-0.005,2.632,0.793,0.812,0.003,1119.344,940.314,2.331,0.4,1.602e7,0,15.859,0.339,0.339,0.276,0.015,0.048,0.009,0.021,2.024e-4,0,0,0,0,-1.139e-5,0.017,0.077,0.005,87.179,0.034,2.105,8.667,901.623,336.551,0.05,0.587
6.318,980.95,133.598,-15.742,133.668,15.743,26.884,0.004,26.884,0.008,4.314,0.161,28.61,-80.6,9.789,0.078,4.239e-6,-0.195,-0.011,2.632,0.793,0.812,0.003,1119.304,940.314,2.331,0.397,1.592e7,0,15.666,0.339,0.339,0.276,0.015,0.048,0.009,0.02,-1.773e-4,0,0,0,0,-1.626e-6,0.017,0.077,0.005,87.161,0.031,2.127,8.624,900.874,336.525,0.05,0.589
6.368,987.61,132.813,-15.666,132.883,15.668,27.1,0.004,27.1,0.008,4.303,0.223,28.61,-80.6,9.789,0.045,4.098e-6,-0.069,-0.01,2.632,0.793,0.812,0.003,1119.584,940.314,2.334,0.395,1.581e7,0,15.475,0.339,0.339,0.276,0.015,0.048,0.005,0.011,3.427e-4,0,0,0,0,-2.087e-7,0.017,0.077,0.005,87.155,0.026,2.195,8.581,900.13,336.499,0.05,0.591
6.418,994.231,132.031,-15.594,132.101,15.596,27.315,0.004,27.315,0.008,4.292,0.237,28.61,-80.6,9.789,0.036,3.852e-6,0.112,-0.01,2.632,0.793,0.812,0.003,1119.582,940.314,2.334,0.393,1.571e7,0,15.286,0.34,0.34,0.277,0.015,0.048,0.004,0.009,5.905e-7,0,0,0,0,5.495e-7,0.017,0.077,0.005,87.157,0.018,2.181,8.537,899.39,336.473,0.05,0.593
6.468,1000.814,131.254,-15.521,131.323,15.523,27.529,0.004,27.529,0.008,4.279,0.281,28.61,-80.6,9.789,0.011,3.86e-6,0.141,-0.02,2.632,0.793,0.812,0.003,1119.77,940.314,2.337,0.391,1.561e7,0,15.1,0.34,0.34,0.277,0.015,0.048,0.001,0.003,4.942e-5,0,0,0,0,8.865e-7,0.017,0.077,0.005,87.163,0.007,2.201,8.495,898.659,336.447,0.05,0.596
6.518,1007.357,130.479,-15.45,130.549,15.453,27.743,0.004,27.743,0.008,4.265,0.286,28.61,-80.6,9.789,0.006,3.849e-6,0.189,-0.049,2.632,0.793,0.812,0.003,1119.723,940.314,2.336,0.388,1.551e7,0,14.916,0.34,0.34,0.277,0.015,0.048,6.575e-4,0.001,-2.988e-4,0,0,0,0,1.606e-6,0.017,0.077,0.005,87.172,-0.005,2.166,8.452,897.963,336.421,0.05,0.598
6.568,1013.862,129.709,-15.379,129.778,15.383,27.955,0.004,27.955,0.008,4.25,0.344,28.61,-80.6,9.789,0.029,3.252e-6,-0.161,0.004,2.632,0.793,0.812,0.003,1119.351,940.314,2.331,0.386,1.541e7,0,14.735,0.34,0.34,0.278,0.014,0.048,0.003,0.007,1.584e-4,0,0,0,0,-1.175e-6,0.017,0.077,0.005,87.181,-0.016,2.203,8.41,897.271,336.395,0.05,0.6
6.618,1020.328,128.941,-15.309,129.011,15.313,28.167,0.004,28.167,0.008,4.231,0.38,28.61,-80.6,9.789,0.051,3.453e-6,-0.01,0.007,2.632,0.793,0.812,0.003,1118.986,940.314,2.326,0.384,1.531e7,0,14.556,0.34,0.34,0.278,0.014,0.048,0.006,0.013,-1.71e-4,0,0,0,0,0,0.017,0.077,0.005,87.186,-0.022,2.225,8.368,896.583,336.37,0.05,0.602
6.668,1026.756,128.178,-15.243,128.247,15.247,28.379,0.004,28.379,0.008,4.213,0.343,28.61,-80.6,9.789,0.033,3.952e-6,0.105,0.008,2.632,0.793,0.812,0.003,1119.098,940.314,2.328,0.382,1.522e7,0,14.378,0.34,0.34,0.278,0.014,0.048,0.004,0.008,7.538e-5,0,0,0,0,5.144e-7,0.016,0.077,0.005,87.183,-0.023,2.166,8.326,895.9,336.345,0.05,0.604
6.718,1033.146,127.417,-15.177,127.486,15.18,28.589,0.004,28.589,0.008,4.196,0.332,28.61,-80.6,9.789,0.029,3.619e-6,0.166,0.003,2.632,0.793,0.812,0.003,1119.049,940.314,2.327,0.379,1.512e7,0,14.202,0.34,0.34,0.278,0.014,0.048,0.003,0.007,9.183e-5,0,0,0,0,1.294e-6,0.016,0.077,0.005,87.176,-0.021,2.151,8.285,895.22,336.319,0.05,0.606
6.768,1039.497,126.66,-15.11,126.729,15.114,28.798,0.004,28.798,0.009,4.179,0.34,28.61,-80.6,9.789,0.035,4.216e-6,0.284,0.003,2.632,0.793,0.812,0.003,1118.877,940.314,2.325,0.377,1.502e7,0,14.029,0.34,0.34,0.279,0.014,0.048,0.004,0.009,-2.398e-4,0,0,0,0,3.849e-6,0.016,0.077,0.005,87.165,-0.014,2.171,8.243,894.544,336.294,0.05,0.608
6.818,1045.812,125.906,-15.047,125.975,15.05,29.007,0.004,29.007,0.009,4.163,0.298,28.61,-80.6,9.789,0.012,3.23e-6,0.348,0.012,2.632,0.793,0.812,0.003,1119.048,940.314,2.327,0.375,1.492e7,0,13.857,0.34,0.34,0.279,0.014,0.047,0.001,0.003,-4.191e-4,0,0,0,0,5.824e-6,0.016,0.077,0.005,87.149,-0.004,2.133,8.202,893.873,336.269,0.05,0.61
6.868,1052.088,125.155,-14.984,125.224,14.987,29.214,0.004,29.214,0.009,4.149,0.262,28.61,-80.6,9.789,0.009,4.4e-6,-0.332,0.014,2.632,0.793,0.812,0.003,1118.989,940.314,2.327,0.373,1.483e7,0,13.688,0.34,0.34,0.279,0.014,0.047,9.314e-4,0.002,2.656e-5,0,0,0,0,-5.361e-6,0.016,0.077,0.005,87.132,0.006,2.102,8.161,893.205,336.245,0.05,0.613
6.918,1058.327,124.408,-14.92,124.476,14.923,29.422,0.004,29.422,0.009,4.136,0.269,28.61,-80.6,9.789,0.004,3.689e-6,-0.325,-0.015,2.632,0.793,0.812,0.003,1118.952,940.314,2.326,0.37,1.473e7,0,13.521,0.34,0.34,0.28,0.013,0.047,3.85e-4,4.633e-4,-8.371e-5,0,0,0,0,-5.198e-6,0.016,0.077,0.005,87.115,0.016,2.125,8.121,892.541,336.22,0.05,0.617
6.968,1064.529,123.663,-14.857,123.732,14.859,29.628,0.005,29.628,0.009,4.122,0.287,28.61,-80.6,9.789,0.009,3.507e-6,0.323,-0.042,2.632,0.793,0.812,0.003,1118.791,940.314,2.324,0.368,1.464e7,0,13.356,0.34,0.34,0.28,0.013,0.047,9.925e-4,0.002,-3.415e-4,0,0,0,0,5.215e-6,0.016,0.077,0.005,87.099,0.026,2.163,8.081,891.882,336.196,0.05,0.62
7.018,1070.694,122.922,-14.795,122.991,14.797,29.834,0.005,29.834,0.009,4.108,0.281,28.61,-80.6,9.789,0.006,3.464e-6,0.37,-0.082,2.632,0.793,0.812,0.003,1118.728,940.314,2.323,0.366,1.454e7,0,13.192,0.341,0.341,0.28,0.013,0.047,6.975e-4,0.002,4.59e-4,0,0,0,0,6.93e-6,0.016,0.077,0.005,87.082,0.035,2.173,8.04,891.226,336.171,0.05,0.623
7.068,1076.821,122.184,-14.734,122.252,14.737,30.039,0.005,30.039,0.009,4.095,0.253,28.61,-80.6,9.789,0.01,2.676e-6,-0.33,-0.038,2.632,0.793,0.812,0.003,1118.59,940.314,2.321,0.364,1.445e7,0,13.03,0.341,0.341,0.28,0.013,0.047,0.001,0.002,-1.567e-4,0,0,0,0,-5.561e-6,0.016,0.077,0.005,87.064,0.042,2.149,8.001,890.574,336.147,0.05,0.626
7.118,1082.912,121.449,-14.673,121.517,14.676,30.243,0.005,30.243,0.009,4.082,0.26,28.61,-80.6,9.789,0.005,3.156e-6,-0.33,-0.112,2.632,0.793,0.812,0.003,1118.561,940.314,2.321,0.362,1.436e7,0,12.871,0.341,0.341,0.281,0.013,0.047,5.257e-4,8.474e-4,8.969e-5,0,0,0,0,-5.622e-6,0.016,0.077,0.005,87.047,0.046,2.175,7.961,889.926,336.123,0.05,0.629
7.168,1088.966,120.716,-14.614,120.785,14.616,30.447,0.005,30.447,0.009,4.069,0.237,28.61,-80.6,9.789,0.019,3.929e-6,-0.303,-0.028,2.632,0.793,0.812,0.003,1118.308,940.314,2.318,0.36,1.426e7,0,12.712,0.341,0.341,0.281,0.013,0.047,0.002,0.005,4.211e-4,0,0,0,0,-4.797e-6,0.015,0.077,0.005,87.031,0.047,2.153,7.922,889.282,336.099,0.05,0.632
7.218,1094.984,119.987,-14.556,120.056,14.558,30.65,0.005,30.65,0.009,4.058,0.206,28.61,-80.6,9.789,0.038,4.342e-6,-0.263,-0.019,2.632,0.793,0.812,0.003,1117.991,940.314,2.314,0.357,1.417e7,0,12.556,0.341,0.341,0.281,0.013,0.047,0.004,0.01,5.381e-5,0,0,0,0,-3.677e-6,0.015,0.077,0.005,87.016,0.045,2.117,7.883,888.642,336.076,0.05,0.634
7.268,1100.965,119.261,-14.501,119.329,14.501,30.853,0.005,30.853,0.009,4.049,0.137,28.61,-80.6,9.789,0.082,3.553e-6,-0.088,-0.008,2.632,0.793,0.812,0.003,1117.389,940.314,2.306,0.355,1.408e7,0,12.4,0.341,0.341,0.282,0.013,0.047,0.009,0.021,4.501e-4,0,0,0,0,-4.182e-7,0.015,0.077,0.005,87.007,0.039,2.012,7.844,888.006,336.052,0.05,0.636
7.318,1106.91,118.537,-14.44,118.606,14.441,31.055,0.005,31.055,0.009,4.043,0.183,28.61,-80.6,9.789,0.05,3.604e-6,0.143,-0.006,2.632,0.793,0.812,0.003,1117.67,940.314,2.309,0.353,1.399e7,0,12.248,0.341,0.341,0.282,0.012,0.047,0.006,0.013,3.728e-4,0,0,0,0,1.117e-6,0.015,0.077,0.005,87.009,0.032,2.046,7.805,887.374,336.029,0.05,0.638
7.368,1112.819,117.817,-14.376,117.886,14.38,31.257,0.005,31.257,0.01,4.03,0.316,28.61,-80.6,9.789,0.042,3.94e-6,-0.093,0.005,2.632,0.793,0.812,0.003,1117.68,940.314,2.309,0.351,1.39e7,0,12.098,0.341,0.341,0.282,0.012,0.047,0.005,0.011,-4.109e-4,0,0,0,0,-4.72e-7,0.015,0.077,0.005,87.015,0.025,2.203,7.767,886.745,336.006,0.05,0.641
7.418,1118.692,117.099,-14.319,117.168,14.323,31.458,0.005,31.458,0.01,4.013,0.324,28.61,-80.6,9.789,0.05,3.666e-6,0.036,0.011,2.632,0.793,0.812,0.003,1117.502,940.314,2.307,0.349,1.38e7,0,11.949,0.341,0.341,0.283,0.012,0.047,0.005,0.012,3.219e-4,0,0,0,0,7.281e-8,0.015,0.077,0.005,87.018,0.016,2.191,7.729,886.12,335.982,0.05,0.643
7.468,1124.529,116.385,-14.265,116.453,14.268,31.658,0.005,31.658,0.01,3.998,0.268,28.61,-80.6,9.789,0.013,3.535e-6,0.097,0.007,2.632,0.793,0.812,0.003,1117.838,940.314,2.312,0.347,1.371e7,0,11.8,0.341,0.341,0.283,0.012,0.047,0.001,0.003,-2.044e-4,0,0,0,0,5.276e-7,0.015,0.077,0.005,87.014,0.009,2.099,7.691,885.499,335.959,0.05,0.645
7.518,1130.33,115.673,-14.211,115.741,14.213,31.858,0.005,31.858,0.01,3.986,0.23,28.61,-80.6,9.789,0.011,3.767e-6,-0.09,7.056e-4,2.632,0.793,0.812,0.003,1117.776,940.314,2.311,0.345,1.362e7,0,11.653,0.342,0.342,0.283,0.012,0.047,0.001,0.003,4.746e-4,0,0,0,0,-4.643e-7,0.015,0.077,0.005,87.009,0.003,2.034,7.653,884.882,335.937,0.05,0.647
7.568,1136.096,114.964,-14.157,115.032,14.159,32.057,0.006,32.057,0.01,3.975,0.206,28.61,-80.6,9.789,0.026,3.585e-6,-0.057,-8.523e-4,2.632,0.793,0.812,0.003,1117.518,940.314,2.307,0.343,1.353e7,0,11.508,0.342,0.342,0.283,0.012,0.046,0.003,0.007,-1.587e-4,0,0,0,0,-1.908e-7,0.015,0.077,0.005,87.005,-0.003,1.986,7.615,884.269,335.914,0.05,0.65
7.618,1141.826,114.257,-14.103,114.326,14.105,32.256,0.006,32.256,0.01,3.965,0.199,28.61,-80.6,9.789,0.03,3.644e-6,0.039,-0.005,2.632,0.793,0.812,0.003,1117.392,940.314,2.306,0.341,1.344e7,0,11.365,0.342,0.342,0.284,0.012,0.046,0.003,0.007,-1.871e-4,0,0,0,0,8.848e-8,0.015,0.077,0.005,87.005,-0.007,1.952,7.578,883.659,335.891,0.05,0.653
7.668,1147.522,113.553,-14.048,113.622,14.05,32.454,0.006,32.454,0.01,3.954,0.232,28.61,-80.6,9.789,0.004,3.613e-6,0.054,-0.025,2.632,0.793,0.812,0.003,1117.612,940.314,2.309,0.339,1.336e7,0,11.224,0.342,0.342,0.284,0.012,0.046,4.267e-4,0.001,1.428e-4,0,0,0,0,1.701e-7,0.015,0.077,0.005,87.008,-0.01,1.975,7.541,883.054,335.869,0.05,0.655
7.718,1153.182,112.852,-13.993,112.921,13.995,32.651,0.006,32.651,0.01,3.942,0.27,28.61,-80.6,9.789,0.027,3.791e-6,-0.053,-0.007,2.632,0.793,0.812,0.003,1117.263,940.314,2.304,0.336,1.327e7,0,11.084,0.342,0.342,0.284,0.011,0.046,0.003,0.006,4.049e-4,0,0,0,0,-1.687e-7,0.014,0.077,0.005,87.011,-0.01,2.005,7.504,882.452,335.847,0.05,0.66
7.768,1158.807,112.154,-13.937,112.223,13.941,32.848,0.006,32.848,0.01,3.927,0.327,28.61,-80.6,9.789,0.072,3.609e-6,0.066,-0.004,2.632,0.793,0.812,0.003,1116.66,940.314,2.296,0.334,1.318e7,0,10.947,0.342,0.342,0.285,0.011,0.046,0.008,0.018,4.096e-4,0,0,0,0,2.651e-7,0.014,0.077,0.005,87.011,-0.006,2.072,7.468,881.853,335.824,0.05,0.665
