# Time (s),Altitude (m),Vertical velocity (m/s),Vertical acceleration (m/s²),Total velocity (m/s),Total acceleration (m/s²),Position East of launch (m),Position North of launch (m),Lateral distance (m),Lateral direction (°),Lateral velocity (m/s),Lateral acceleration (m/s²),Latitude (°),Longitude (°),Gravitational acceleration (m/s²),Angle of attack (°),Roll rate (°/s),Pitch rate (°/s),Yaw rate (°/s),Mass (kg),Motor mass (kg),Longitudinal moment of inertia (kg·m²),Rotational moment of inertia (kg·m²),CP location (mm),CG location (mm),Stability margin calibers (​),Mach number (​),Reynolds number (​),Thrust (N),Drag force (N),Drag coefficient (​),Axial drag coefficient (​),Friction drag coefficient (​),Pressure drag coefficient (​),Base drag coefficient (​),Normal force coefficient (​),Pitch moment coefficient (​),Yaw moment coefficient (​),Side force coefficient (​),Roll moment coefficient (​),Roll forcing coefficient (​),Roll damping coefficient (​),Pitch damping coefficient (​),Coriolis acceleration (m/s²),Reference length (m),Reference area (m²),Vertical orientation (zenith) (°),Lateral orientation (azimuth) (°),Wind velocity (m/s),Air temperature (°C),Air pressure (mbar),Speed of sound (m/s),Simulation time step (s),Computation time (s)
0.01,0.01,1.962,196.745,1.962,196.745,0,0,0,0,0,0,28.61,-80.6,9.792,46.895,0,0,0,2.273,0.723,0.387,0.002,NaN,987.793,NaN,0.008,3.328e5,469.423,0.009,0.621,0.37,0.5,0.001,0.12,NaN,NaN,NaN,NaN,NaN,NaN,NaN,NaN,2.519e-4,0.077,0.005,90,0,2.102,15,1013.249,340.389,0.01,0.04
0.02,0.04,4.18,221.775,4.18,221.775,0,0,0,0,0,0,28.61,-80.6,9.792,26.811,0,0,0,2.272,0.723,0.387,0.002,NaN,987.665,NaN,0.014,5.414e5,526.156,0.042,0.571,0.675,0.45,0.001,0.12,NaN,NaN,NaN,NaN,NaN,NaN,NaN,NaN,5.351e-4,0.077,0.005,90,0,2.112,15,1013.245,340.389,0.01,0.046
0.03,0.092,6.051,187.186,6.051,187.186,0,0,0,0,0,0,28.61,-80.6,9.792,19.331,0,0,0,2.271,0.722,0.387,0.002,NaN,987.559,NaN,0.019,7.413e5,447.481,0.082,0.542,0.701,0.421,0.001,0.12,NaN,NaN,NaN,NaN,NaN,NaN,NaN,NaN,7.748e-4,0.077,0.005,90,0,2.123,14.999,1013.239,340.389,0.01,0.05
0.04,0.161,7.874,182.262,7.874,182.262,0,0,0,0,0,0,28.61,-80.6,9.792,15.161,0,0,0,2.271,0.721,0.387,0.002,NaN,987.473,NaN,0.024,9.43e5,436.237,0.128,0.522,0.674,0.401,0.001,0.12,NaN,NaN,NaN,NaN,NaN,NaN,NaN,NaN,0.001,0.077,0.005,90,0,2.133,14.999,1013.231,340.388,0.01,0.055
0.05,0.249,9.689,181.548,9.689,181.548,0,0,0,0,0,0,28.61,-80.6,9.792,12.477,0,0,0,2.27,0.721,0.387,0.002,NaN,987.387,NaN,0.029,1.147e6,434.561,0.178,0.507,0.633,0.386,0.001,0.12,NaN,NaN,NaN,NaN,NaN,NaN,NaN,NaN,0.001,0.077,0.005,90,0,2.144,14.998,1013.221,340.388,0.01,0.058
0.06,0.355,11.497,180.831,11.497,180.831,0,0,0,0,0,0,28.61,-80.6,9.792,10.518,0,0,0,2.27,0.72,0.387,0.002,NaN,987.301,NaN,0.034,1.352e6,432.885,0.232,0.495,0.595,0.374,0.001,0.12,NaN,NaN,NaN,NaN,NaN,NaN,NaN,NaN,0.001,0.077,0.005,90,0,2.135,14.998,1013.208,340.388,0.01,0.061
0.069,0.462,13.064,180.158,13.064,180.158,0,0,0,0,0,0,28.61,-80.6,9.792,9.245,0,0,0,2.269,0.72,0.387,0.002,NaN,987.226,NaN,0.039,1.53e6,431.318,0.284,0.487,0.569,0.365,0.001,0.12,NaN,NaN,NaN,NaN,NaN,NaN,NaN,NaN,0.002,0.077,0.005,90,0,2.126,14.997,1013.196,340.387,0.009,0.064
0.076,0.567,14.439,179.566,14.439,179.566,0,0,0,0,0,0,28.61,-80.6,9.792,8.35,0,0,0,2.269,0.719,0.387,0.002,NaN,987.16,NaN,0.043,1.687e6,429.947,0.334,0.48,0.55,0.358,0.001,0.12,NaN,NaN,NaN,NaN,NaN,NaN,NaN,NaN,0.002,0.077,0.005,90,0,2.119,14.996,1013.183,340.387,0.008,0.07
0.083,0.671,15.679,179.038,15.679,179.038,0,0,0,0,0,0,28.61,-80.6,9.792,7.674,0,0,0,2.268,0.719,0.386,0.002,NaN,987.1,NaN,0.046,1.829e6,428.725,0.382,0.475,0.535,0.353,0.001,0.12,NaN,NaN,NaN,NaN,NaN,NaN,NaN,NaN,0.002,0.077,0.005,90,0,2.113,14.996,1013.171,340.386,0.007,0.075
0.09,0.775,16.817,178.555,16.817,178.555,0,0,0,0,0,0,28.61,-80.6,9.792,7.14,0,0,0,2.268,0.719,0.386,0.002,NaN,987.045,NaN,0.05,1.959e6,427.61,0.429,0.47,0.524,0.349,0.001,0.12,NaN,NaN,NaN,NaN,NaN,NaN,NaN,NaN,0.002,0.077,0.005,90,0,2.107,14.995,1013.159,340.386,0.006,0.08
0.096,0.878,17.876,178.106,17.876,178.106,0,0,0,0,0,0,28.61,-80.6,9.792,6.704,0,0,0,2.268,0.718,0.386,0.002,NaN,986.994,NaN,0.053,2.081e6,426.578,0.475,0.466,0.514,0.345,0.001,0.12,NaN,NaN,NaN,NaN,NaN,NaN,NaN,NaN,0.002,0.077,0.005,90,0,2.101,14.994,1013.147,340.385,0.006,0.086
0.101,0.981,18.87,177.684,18.87,177.684,0,0,0,0,0,0,28.61,-80.6,9.792,6.336,0,0,0,2.267,0.718,0.386,0.002,NaN,986.945,NaN,0.056,2.195e6,425.61,0.521,0.463,0.506,0.341,0.001,0.12,NaN,NaN,NaN,NaN,NaN,NaN,NaN,NaN,0.002,0.077,0.005,90,0,2.095,14.994,1013.135,340.385,0.006,0.092
0.106,1.083,19.81,177.286,19.81,177.286,0,0,0,0,0,0,28.61,-80.6,9.792,6.019,0,0,0,2.267,0.718,0.386,0.002,NaN,986.9,NaN,0.059,2.303e6,424.697,0.565,0.46,0.5,0.338,0.001,0.12,NaN,NaN,NaN,NaN,NaN,NaN,NaN,NaN,0.003,0.077,0.005,90,0,2.089,14.993,1013.123,340.385,0.005,0.106
0.114,1.246,21.215,176.801,21.215,176.802,-1.613e-5,0,1.613e-5,-180,0.004,0.522,28.61,-80.6,9.792,5.585,0,0.147,-4.476e-5,2.267,0.717,0.386,0.002,1096.169,986.831,1.42,0.063,2.464e6,423.587,0.635,0.456,0.49,0.334,0.001,0.121,0.912,1.294,-4.717e-4,0,0,0,0,2.528e-5,0.003,0.077,0.005,89.999,-0.001,2.079,14.992,1013.104,340.384,0.008,0.112
0.126,1.512,23.315,176.07,23.315,176.071,-1.024e-4,0,1.024e-4,-180,0.01,0.54,28.61,-80.6,9.792,5.029,0,0.388,-5.335e-5,2.266,0.717,0.386,0.002,1101.817,986.728,1.495,0.069,2.705e6,421.922,0.748,0.45,0.479,0.328,0.001,0.121,0.796,1.191,-1.727e-4,0,0,0,0,1.465e-4,0.003,0.077,0.005,89.996,-0.001,2.064,14.99,1013.073,340.383,0.012,0.116
0.144,1.957,26.445,174.965,26.445,174.966,-3.759e-4,0,3.759e-4,-180,0.02,0.545,28.61,-80.6,9.792,4.356,0,0.795,1.536e-4,2.265,0.716,0.386,0.002,1109.176,986.573,1.592,0.078,3.065e6,419.423,0.933,0.443,0.465,0.321,0.001,0.121,0.664,1.057,-4.372e-4,0,0,0,0,4.797e-4,0.003,0.077,0.005,89.986,-0.002,2.041,14.987,1013.02,340.381,0.018,0.122
0.171,2.729,31.096,173.291,31.096,173.292,-0.001,0,0.001,-180,0.035,0.512,28.61,-80.6,9.792,3.645,0,1.505,3.037e-4,2.264,0.714,0.386,0.002,1117.636,986.341,1.705,0.092,3.601e6,415.676,1.245,0.434,0.45,0.312,0.001,0.121,0.533,0.908,-1.5e-4,0,0,0,0,0.001,0.004,0.077,0.005,89.955,-0.003,2.04,14.982,1012.93,340.378,0.027,0.126
0.211,4.119,37.972,170.743,37.972,170.743,-0.003,-2.375e-8,0.003,-180,0.052,0.331,28.61,-80.6,9.792,2.903,5.043e-7,2.789,4.252e-4,2.261,0.712,0.385,0.002,1127.35,985.991,1.836,0.112,4.394e6,410.055,1.79,0.424,0.434,0.301,0.002,0.122,0.406,0.742,2.721e-4,0,0,0,0,0.003,0.005,0.077,0.005,89.87,-0.004,2.064,14.973,1012.767,340.373,0.04,0.13
0.261,6.227,46.341,167.263,46.341,167.263,-0.006,-1.124e-7,0.006,-179.999,0.058,0.183,28.61,-80.6,9.792,2.191,7.808e-7,4.709,0.001,2.259,0.709,0.385,0.002,1137.636,985.557,1.975,0.136,5.359e6,402.492,2.581,0.415,0.421,0.291,0.002,0.122,0.293,0.573,3.03e-4,0,0,0,0,0.006,0.006,0.077,0.005,89.683,-0.004,2.088,14.96,1012.52,340.364,0.05,0.134
0.311,8.748,54.514,163.357,54.514,163.361,-0.008,-3.803e-7,0.008,-179.997,0.028,1.096,28.61,-80.6,9.792,1.488,-4.098e-6,6.663,1.426e-4,2.256,0.707,0.384,0.002,1148.841,985.121,2.126,0.16,6.302e6,394.111,3.485,0.408,0.411,0.283,0.002,0.123,0.19,0.395,4.858e-4,0,0,0,0,0.008,0.007,0.077,0.005,89.399,-0.004,2.015,14.943,1012.224,340.354,0.05,0.141
0.361,11.673,62.49,159.382,62.49,159.399,-0.008,-9.455e-7,0.008,-179.993,0.054,2.278,28.61,-80.6,9.792,1.009,3.637e-6,8.553,0.002,2.253,0.704,0.384,0.002,1157.226,984.684,2.241,0.184,7.222e6,385.73,4.503,0.403,0.404,0.276,0.002,0.124,0.124,0.269,-2.223e-4,0,0,0,0,0.01,0.008,0.077,0.005,89.018,-0.002,2.118,14.924,1011.881,340.343,0.05,0.144
0.411,14.992,70.266,155.336,70.266,155.384,-0.002,-1.824e-6,0.002,-179.935,0.204,3.864,28.61,-80.6,9.792,0.389,-2.832e-6,9.882,-0.002,2.251,0.701,0.383,0.002,1168.916,984.246,2.398,0.207,8.118e6,377.349,5.619,0.399,0.399,0.271,0.003,0.126,0.046,0.1,-2.791e-4,0,0,0,0,0.011,0.009,0.077,0.005,88.554,-0.001,2.043,14.903,1011.492,340.33,0.05,0.148
0.461,18.695,77.837,151.213,77.838,151.318,0.014,-2.894e-6,0.014,-0.012,0.44,5.62,28.61,-80.6,9.792,0.199,-3.29e-7,-9.905,-6.802e-4,2.248,0.698,0.383,0.002,1172.943,983.807,2.456,0.229,8.989e6,368.968,6.836,0.396,0.396,0.266,0.003,0.127,0.023,0.065,3.5e-4,0,0,0,0,-0.009,0.01,0.077,0.005,88.054,0.002,1.924,14.878,1011.057,340.315,0.05,0.152
0.511,22.771,85.2,147.028,85.203,147.202,0.044,-3.225e-6,0.044,-0.004,0.758,7.172,28.61,-80.6,9.792,0.531,1.503e-6,-8.722,-0.001,2.245,0.696,0.382,0.002,1166.805,983.367,2.382,0.251,9.838e6,360.588,8.146,0.394,0.394,0.262,0.003,0.128,0.063,0.156,-4.014e-6,0,0,0,0,-0.006,0.011,0.077,0.005,87.585,0.005,2.039,14.852,1010.579,340.299,0.05,0.155
0.561,27.21,92.352,142.791,92.359,143.044,0.091,-1.62e-6,0.091,-0.001,1.149,8.491,28.61,-80.6,9.792,0.825,1.789e-5,-6.094,-0.004,2.242,0.693,0.382,0.002,1161.675,982.926,2.321,0.272,1.066e7,352.207,9.536,0.392,0.393,0.258,0.004,0.13,0.101,0.236,3.968e-4,0,0,0,0,-0.002,0.012,0.077,0.005,87.211,0.006,2.007,14.823,1010.059,340.282,0.05,0.158
0.611,32.001,99.292,138.545,99.305,138.845,0.159,2.908e-6,0.159,0.001,1.59,9.136,28.61,-80.6,9.792,0.908,-8.402e-6,-2.23,0.003,2.24,0.69,0.381,0.002,1160.501,982.484,2.312,0.292,1.146e7,343.826,10.987,0.39,0.391,0.255,0.004,0.131,0.112,0.258,-2.253e-4,0,0,0,0,-2.69e-4,0.013,0.077,0.005,87.002,0.006,2.022,14.792,1009.497,340.263,0.05,0.161
0.659,36.858,105.674,134.444,105.693,134.733,0.245,1.019e-5,0.245,0.002,2.015,8.822,28.61,-80.6,9.792,0.733,7.956e-6,1.661,0.005,2.237,0.688,0.381,0.002,1164.019,982.064,2.363,0.311,1.219e7,335.663,12.405,0.39,0.39,0.252,0.005,0.133,0.089,0.21,-2.09e-4,0,0,0,0,1.317e-4,0.014,0.077,0.005,86.993,0.008,2.18,14.76,1008.927,340.244,0.047,0.165
0.709,42.305,112.203,130.33,112.23,130.56,0.356,2.174e-5,0.356,0.003,2.426,7.737,28.61,-80.6,9.792,0.426,-2.731e-5,4.854,-0.002,2.234,0.685,0.381,0.002,1170.171,981.62,2.449,0.33,1.294e7,327.5,13.945,0.389,0.389,0.25,0.005,0.134,0.051,0.123,-4.624e-4,0,0,0,0,9.98e-4,0.014,0.077,0.005,87.166,0.009,2.3,14.725,1008.288,340.222,0.05,0.168
0.759,48.074,118.521,126.1,118.553,126.257,0.486,3.841e-5,0.486,0.005,2.774,6.296,28.61,-80.6,9.792,0.139,7.097e-6,6.716,0.018,2.232,0.682,0.38,0.002,1176.204,981.174,2.533,0.349,1.366e7,319.119,15.532,0.389,0.389,0.247,0.006,0.136,0.016,0.04,-2.429e-5,0,0,0,0,0.002,0.015,0.077,0.005,87.466,0.012,2.193,14.688,1007.612,340.2,0.05,0.171
0.809,54.152,124.626,121.841,124.663,121.927,0.632,6.024e-5,0.632,0.005,3.04,4.573,28.61,-80.6,9.792,0.208,-2.507e-5,-6.34,0.02,2.229,0.679,0.38,0.002,1175.212,980.728,2.526,0.367,1.436e7,310.739,17.165,0.389,0.389,0.245,0.006,0.137,0.024,0.063,4.829e-4,0,0,0,0,-0.001,0.016,0.077,0.005,87.805,0.012,2.213,14.648,1006.899,340.176,0.05,0.176
0.859,60.531,130.517,117.533,130.556,117.575,0.789,8.639e-5,0.789,0.006,3.224,3.169,28.61,-80.6,9.792,0.446,7.81e-6,-3.562,0.006,2.226,0.677,0.379,0.002,1170.929,980.28,2.476,0.384,1.503e7,302.358,18.833,0.389,0.389,0.243,0.007,0.139,0.053,0.132,4.167e-4,0,0,0,0,-3.971e-4,0.017,0.077,0.005,88.06,0.006,2.244,14.607,1006.151,340.15,0.05,0.18
0.909,67.199,136.19,113.175,136.232,113.208,0.954,1.138e-4,0.954,0.007,3.361,2.71,28.61,-80.6,9.792,0.46,1.505e-5,0.526,-0.005,2.223,0.674,0.379,0.002,1171.049,979.832,2.483,0.401,1.568e7,293.977,20.512,0.389,0.39,0.241,0.008,0.141,0.055,0.137,-1.433e-4,0,0,0,0,7.954e-6,0.017,0.077,0.005,88.133,-0.003,2.193,14.563,1005.369,340.124,0.05,0.185
0.956,73.726,141.328,108.926,141.371,108.973,1.115,1.372e-4,1.115,0.007,3.493,3.192,28.61,-80.6,9.792,0.302,3.418e-5,4.045,0.012,2.221,0.671,0.378,0.002,1174.503,979.408,2.534,0.416,1.626e7,285.844,22.095,0.39,0.39,0.239,0.008,0.142,0.036,0.09,-6.54e-5,0,0,0,0,4.368e-4,0.018,0.077,0.005,88.014,-0.01,2.155,14.521,1004.603,340.098,0.047,0.189
1.006,80.924,146.574,104.557,146.62,104.648,1.294,1.572e-4,1.294,0.007,3.678,4.363,28.61,-80.6,9.792,0.03,2.749e-6,5.699,0.186,2.218,0.669,0.378,0.002,1180.382,978.962,2.616,0.431,1.685e7,277.618,23.783,0.39,0.39,0.238,0.009,0.144,0.003,0.008,4.117e-4,0,0,0,0,8.062e-4,0.019,0.077,0.005,87.751,-0.019,2.132,14.474,1003.759,340.07,0.05,0.194
1.056,88.332,149.727,62.829,149.777,62.952,1.482,1.686e-4,1.482,0.007,3.849,3.934,28.61,-80.6,9.792,0.23,-4.637e-5,-4.46,0.042,2.217,0.667,0.377,0.002,1176.574,978.729,2.569,0.441,1.721e7,186.052,24.836,0.391,0.391,0.237,0.009,0.145,0.027,0.07,4.156e-4,0,0,0,0,-4.733e-4,0.019,0.077,0.005,87.481,-0.018,2.098,14.426,1002.89,340.041,0.05,0.197
1.106,95.885,152.42,53.664,152.474,53.823,1.679,1.709e-4,1.679,0.006,4.047,4.129,28.61,-80.6,9.792,0.345,1.735e-5,-1.024,-0.006,2.216,0.666,0.377,0.002,1174.526,978.52,2.546,0.449,1.751e7,166.62,25.756,0.391,0.392,0.236,0.009,0.146,0.041,0.104,4.946e-4,0,0,0,0,-2.409e-5,0.02,0.077,0.005,87.34,-0.013,2.081,14.377,1002.004,340.011,0.05,0.201
1.154,103.268,154.908,51.629,154.966,51.774,1.878,1.676e-4,1.878,0.005,4.243,3.873,28.61,-80.6,9.792,0.304,-5.395e-6,2.861,-0.007,2.214,0.665,0.377,0.002,1175.526,978.32,2.561,0.456,1.778e7,162.871,26.614,0.392,0.392,0.235,0.01,0.147,0.036,0.092,4.01e-4,0,0,0,0,1.819e-4,0.02,0.077,0.005,87.394,-0.007,1.968,14.329,1001.138,339.982,0.048,0.205
1.204,111.075,157.397,49.612,157.459,49.69,2.095,1.627e-4,2.095,0.004,4.41,2.795,28.61,-80.6,9.792,0.093,3.35e-5,5.373,-0.017,2.213,0.664,0.377,0.002,1179.961,978.112,2.621,0.463,1.806e7,159.094,27.484,0.392,0.392,0.234,0.01,0.148,0.011,0.028,2.629e-4,0,0,0,0,6.215e-4,0.02,0.077,0.005,87.62,6.274e-4,1.885,14.278,1000.223,339.951,0.05,0.211
1.254,118.998,159.51,42.111,159.573,42.128,2.318,1.585e-4,2.318,0.004,4.499,1.205,28.61,-80.6,9.792,0.183,6.858e-5,-4.62,-0.018,2.212,0.663,0.377,0.002,1178.328,977.953,2.602,0.47,1.829e7,143.079,28.241,0.393,0.393,0.234,0.01,0.149,0.021,0.056,5.551e-5,0,0,0,0,-4.474e-4,0.02,0.077,0.005,87.893,-2.055e-4,1.924,14.227,999.294,339.92,0.05,0.215
1.304,127.016,161.204,33.764,161.268,33.765,2.543,1.547e-4,2.543,0.003,4.524,0.324,28.61,-80.6,9.792,0.292,2.734e-5,-1.411,-0.011,2.212,0.662,0.376,0.002,1176.289,977.866,2.577,0.475,1.847e7,125.151,28.853,0.393,0.393,0.233,0.011,0.149,0.035,0.089,-4.695e-4,0,0,0,0,-4.086e-5,0.021,0.077,0.005,88.05,0.001,1.827,14.174,998.353,339.889,0.05,0.219
1.354,135.063,162.545,26.858,162.608,26.858,2.768,1.515e-4,2.768,0.003,4.524,0.171,28.61,-80.6,9.792,0.272,4.403e-5,2.578,0.008,2.211,0.662,0.376,0.002,1176.801,977.779,2.585,0.479,1.861e7,110.338,29.336,0.394,0.394,0.233,0.011,0.15,0.032,0.083,1.526e-5,0,0,0,0,1.342e-4,0.021,0.077,0.005,88.012,-0.004,1.918,14.122,997.409,339.857,0.05,0.222
1.404,143.215,163.548,19.98,163.611,19.996,2.995,1.479e-4,2.995,0.003,4.54,0.795,28.61,-80.6,9.792,0.082,6.121e-5,5.045,0.004,2.211,0.661,0.376,0.002,1180.717,977.692,2.637,0.482,1.872e7,95.525,29.69,0.394,0.394,0.233,0.011,0.15,0.01,0.025,-2.583e-4,0,0,0,0,5.075e-4,0.021,0.077,0.005,87.799,-0.01,1.972,14.069,996.453,339.825,0.05,0.225
1.454,151.409,164.208,13.121,164.272,13.218,3.223,1.412e-4,3.223,0.003,4.596,1.6,28.61,-80.6,9.792,0.159,-2.364e-6,-4.432,0.019,2.21,0.661,0.376,0.002,1179.215,977.604,2.618,0.484,1.878e7,80.668,29.923,0.394,0.394,0.232,0.011,0.15,0.019,0.05,-3.864e-4,0,0,0,0,-3.885e-4,0.021,0.077,0.005,87.539,-0.016,1.96,14.016,995.492,339.793,0.05,0.229
1.504,159.627,164.526,6.33,164.593,6.625,3.455,1.292e-4,3.455,0.002,4.685,1.957,28.61,-80.6,9.792,0.305,1.91e-5,-0.979,0.011,2.21,0.66,0.376,0.002,1176.329,977.517,2.582,0.485,1.88e7,65.812,30.029,0.394,0.394,0.232,0.011,0.151,0.036,0.094,-4.251e-4,0,0,0,0,-1.889e-5,0.021,0.077,0.005,87.395,-0.007,1.875,13.962,994.528,339.76,0.05,0.232
1.549,167.114,164.52,-0.06,164.589,1.397,3.67,1.173e-4,3.67,0.002,4.759,1.395,28.61,-80.6,9.792,0.241,3.091e-5,2.575,0.024,2.209,0.66,0.376,0.002,1177.6,977.437,2.6,0.485,1.879e7,51.623,30.007,0.394,0.394,0.232,0.011,0.151,0.028,0.074,-1.334e-5,0,0,0,0,1.307e-4,0.021,0.077,0.005,87.441,0.007,1.889,13.914,993.65,339.731,0.046,0.235
1.599,175.332,164.201,-6.369,164.271,6.373,3.909,1.082e-4,3.909,0.002,4.793,0.219,28.61,-80.6,9.792,0.025,-4.688e-6,4.402,0.196,2.209,0.659,0.376,0.002,1181.96,977.35,2.657,0.484,1.874e7,37.434,29.858,0.394,0.394,0.233,0.011,0.15,0.003,0.007,-3.253e-4,0,0,0,0,3.832e-4,0.021,0.077,0.005,87.639,0.019,1.928,13.86,992.686,339.698,0.05,0.237
1.649,183.526,163.551,-12.941,163.62,12.969,4.148,1.078e-4,4.148,0.001,4.767,0.851,28.61,-80.6,9.792,0.178,4.904e-5,-3.255,-0.004,2.208,0.659,0.376,0.002,1178.789,977.262,2.617,0.482,1.866e7,22.577,29.593,0.394,0.394,0.233,0.011,0.15,0.021,0.055,-4.426e-4,0,0,0,0,-2.112e-4,0.021,0.077,0.005,87.849,0.029,1.923,13.807,991.725,339.666,0.05,0.24
1.699,191.679,162.572,-19.481,162.64,19.533,4.384,1.174e-4,4.384,0.002,4.699,1.416,28.61,-80.6,9.792,0.263,2.674e-5,-0.106,-0.002,2.207,0.658,0.376,0.002,1177.004,977.174,2.595,0.479,1.854e7,7.72,29.206,0.394,0.394,0.233,0.011,0.15,0.031,0.08,1.301e-5,0,0,0,0,-2.28e-7,0.021,0.077,0.005,87.937,0.028,1.938,13.754,990.769,339.634,0.05,0.243
1.702,192.085,162.515,-22.939,162.583,22.994,4.396,1.181e-4,4.396,0.002,4.695,1.583,28.61,-80.6,9.792,0.274,7.621e-6,0.164,0.002,2.207,0.658,0.376,0.002,1176.778,977.173,2.592,0.479,1.853e7,0.057,29.184,0.394,0.394,0.233,0.011,0.15,0.032,0.084,2.474e-4,0,0,0,0,5.422e-7,0.021,0.077,0.005,87.937,0.028,1.938,13.751,990.722,339.632,0.003,0.25
1.705,192.695,162.429,-22.95,162.497,23.004,4.414,1.193e-4,4.414,0.002,4.689,1.573,28.61,-80.6,9.792,0.272,7.63e-6,0.436,0.001,2.207,0.658,0.376,0.002,1176.818,977.173,2.593,0.479,1.852e7,0,29.15,0.394,0.394,0.233,0.011,0.15,0.032,0.084,4.338e-5,0,0,0,0,3.849e-6,0.021,0.077,0.005,87.936,0.028,1.937,13.747,990.65,339.63,0.004,0.269
1.711,193.608,162.3,-22.928,162.367,22.98,4.44,1.211e-4,4.44,0.002,4.68,1.549,28.61,-80.6,9.792,0.266,7.547e-6,0.84,0.002,2.207,0.658,0.376,0.002,1176.915,977.173,2.594,0.478,1.85e7,0,29.099,0.394,0.394,0.233,0.011,0.15,0.031,0.081,3.091e-4,0,0,0,0,1.427e-5,0.021,0.077,0.005,87.932,0.027,1.935,13.742,990.543,339.626,0.006,0.271
1.719,194.976,162.107,-22.895,162.174,22.944,4.479,1.241e-4,4.479,0.002,4.667,1.498,28.61,-80.6,9.792,0.254,7.552e-6,1.426,-0.002,2.207,0.658,0.376,0.002,1177.142,977.173,2.597,0.478,1.848e7,0,29.023,0.394,0.394,0.233,0.011,0.15,0.03,0.078,-5.99e-5,0,0,0,0,4.124e-5,0.021,0.077,0.005,87.923,0.026,1.932,13.733,990.383,339.621,0.008,0.274
1.732,197.026,161.817,-22.846,161.884,22.889,4.538,1.289e-4,4.538,0.002,4.649,1.39,28.61,-80.6,9.792,0.227,8.555e-6,2.236,0.003,2.207,0.658,0.376,0.002,1177.654,977.173,2.604,0.477,1.844e7,0,28.908,0.394,0.394,0.233,0.011,0.15,0.027,0.07,3.265e-4,0,0,0,0,1.018e-4,0.021,0.077,0.005,87.899,0.023,1.928,13.719,990.142,339.613,0.013,0.278
1.751,200.094,161.384,-22.776,161.45,22.806,4.626,1.371e-4,4.626,0.002,4.624,1.172,28.61,-80.6,9.792,0.171,1.513e-6,3.217,-0.003,2.207,0.658,0.376,0.002,1178.744,977.173,2.618,0.476,1.839e7,0,28.737,0.394,0.394,0.233,0.011,0.149,0.02,0.052,-1.426e-4,0,0,0,0,2.119e-4,0.021,0.077,0.005,87.847,0.019,1.924,13.699,989.782,339.601,0.019,0.28
1.779,204.681,160.737,-22.674,160.803,22.689,4.758,1.507e-4,4.758,0.002,4.596,0.823,28.61,-80.6,9.792,0.077,1.373e-5,4.141,-0.013,2.207,0.658,0.376,0.002,1180.59,977.173,2.642,0.474,1.831e7,0,28.484,0.393,0.393,0.234,0.011,0.149,0.009,0.024,5.308e-5,0,0,0,0,3.539e-4,0.021,0.077,0.005,87.74,0.011,1.96,13.67,989.244,339.583,0.028,0.283
1.822,211.526,159.772,-22.528,159.837,22.53,4.953,1.729e-4,4.953,0.002,4.573,0.266,28.61,-80.6,9.792,0.079,8.121e-6,-4.053,-0.002,2.207,0.658,0.376,0.002,1180.477,977.173,2.64,0.471,1.819e7,0,28.112,0.393,0.393,0.234,0.01,0.149,0.009,0.024,4.764e-5,0,0,0,0,-3.432e-4,0.02,0.077,0.005,87.558,0.007,2.005,13.625,988.442,339.556,0.043,0.286
1.872,219.486,158.649,-22.356,158.715,22.356,5.182,2.002e-4,5.182,0.002,4.574,0.155,28.61,-80.6,9.792,0.198,1.869e-6,-2.095,0.004,2.207,0.658,0.376,0.002,1177.963,977.173,2.608,0.468,1.805e7,0,27.687,0.393,0.393,0.234,0.01,0.148,0.023,0.061,3.95e-4,0,0,0,0,-9.298e-5,0.02,0.077,0.005,87.397,0.006,2.058,13.573,987.508,339.524,0.05,0.288
1.922,227.391,157.536,-22.168,157.603,22.169,5.411,2.285e-4,5.411,0.002,4.585,0.208,28.61,-80.6,9.792,0.215,-2.927e-6,0.488,0.01,2.207,0.658,0.376,0.002,1177.527,977.173,2.602,0.464,1.791e7,0,27.267,0.393,0.393,0.235,0.01,0.148,0.025,0.066,4.211e-4,0,0,0,0,5.115e-6,0.02,0.077,0.005,87.361,0.005,2.067,13.522,986.581,339.493,0.05,0.291
1.972,235.24,156.433,-21.966,156.5,21.966,5.64,2.573e-4,5.64,0.003,4.59,0.069,28.61,-80.6,9.791,0.136,-9.216e-6,2.78,0.001,2.207,0.658,0.376,0.002,1179.04,977.173,2.622,0.461,1.778e7,0,26.851,0.393,0.393,0.235,0.01,0.148,0.016,0.041,-4.056e-4,0,0,0,0,1.685e-4,0.02,0.077,0.005,87.456,0.004,1.986,13.471,985.66,339.462,0.05,0.293
2.022,243.034,155.34,-21.758,155.407,21.766,5.87,2.872e-4,5.87,0.003,4.574,0.596,28.61,-80.6,9.791,0.023,-1.671e-5,-3.62,0.062,2.207,0.658,0.376,0.002,1181.257,977.173,2.65,0.458,1.764e7,0,26.443,0.392,0.392,0.235,0.01,0.147,0.003,0.007,-3.622e-4,0,0,0,0,-2.895e-4,0.02,0.077,0.005,87.631,0.009,1.927,13.42,984.746,339.432,0.05,0.297
2.072,250.774,154.257,-21.56,154.323,21.586,6.097,3.192e-4,6.097,0.003,4.53,1.052,28.61,-80.6,9.791,0.163,-5.025e-6,-2.321,0.017,2.207,0.658,0.376,0.002,1178.299,977.173,2.612,0.455,1.751e7,0,26.047,0.392,0.392,0.236,0.01,0.147,0.019,0.051,3.546e-4,0,0,0,0,-1.207e-4,0.02,0.077,0.005,87.79,0.006,1.891,13.37,983.838,339.401,0.05,0.3
2.122,258.46,153.183,-21.376,153.249,21.415,6.322,3.521e-4,6.322,0.003,4.471,1.3,28.61,-80.6,9.791,0.242,1.695e-5,-0.1,-0.012,2.207,0.658,0.376,0.002,1176.644,977.173,2.591,0.452,1.737e7,0,25.659,0.392,0.392,0.236,0.01,0.147,0.028,0.074,3.91e-4,0,0,0,0,-2.262e-7,0.02,0.077,0.005,87.851,0.001,1.942,13.32,982.937,339.371,0.05,0.303
2.172,266.093,152.119,-21.206,152.183,21.238,6.544,3.838e-4,6.544,0.003,4.405,1.17,28.61,-80.6,9.791,0.205,-1.215e-5,2.876,-0.006,2.207,0.658,0.376,0.002,1177.283,977.173,2.599,0.449,1.724e7,0,25.275,0.392,0.392,0.236,0.009,0.146,0.024,0.063,4.074e-4,0,0,0,0,1.906e-4,0.019,0.077,0.005,87.772,0.001,2.076,13.27,982.042,339.341,0.05,0.308
2.222,273.672,151.063,-21.057,151.125,21.064,6.763,4.147e-4,6.763,0.004,4.36,0.557,28.61,-80.6,9.791,0.019,7.731e-6,4.285,0.002,2.207,0.658,0.376,0.002,1180.991,977.173,2.647,0.446,1.711e7,0,24.894,0.392,0.392,0.237,0.009,0.146,0.002,0.006,3.822e-4,0,0,0,0,4.291e-4,0.019,0.077,0.005,87.578,0.01,2.066,13.221,981.153,339.311,0.05,0.31
2.272,281.199,150.013,-20.917,150.076,20.917,6.981,4.477e-4,6.981,0.004,4.35,0.055,28.61,-80.6,9.791,0.175,2.311e-5,-3.195,-0.002,2.207,0.658,0.376,0.002,1177.73,977.173,2.605,0.443,1.699e7,0,24.525,0.392,0.392,0.237,0.009,0.145,0.02,0.053,2.029e-5,0,0,0,0,-2.418e-4,0.019,0.077,0.005,87.377,0.021,2.03,13.172,980.27,339.281,0.05,0.314
2.322,288.674,148.971,-20.766,149.035,20.769,7.199,4.862e-4,7.199,0.004,4.363,0.318,28.61,-80.6,9.791,0.26,9.389e-6,-0.766,0.001,2.207,0.658,0.376,0.002,1175.949,977.173,2.582,0.44,1.686e7,0,24.163,0.392,0.392,0.237,0.009,0.145,0.031,0.079,4.876e-4,0,0,0,0,-1.41e-5,0.019,0.077,0.005,87.275,0.022,2.029,13.124,979.393,339.252,0.05,0.317
2.372,296.096,147.937,-20.593,148.002,20.594,7.417,5.302e-4,7.417,0.004,4.377,0.125,28.61,-80.6,9.791,0.201,2.709e-5,1.973,-0.012,2.207,0.658,0.376,0.002,1177.046,977.173,2.596,0.437,1.673e7,0,23.803,0.391,0.391,0.238,0.009,0.145,0.024,0.061,-5.321e-5,0,0,0,0,9.482e-5,0.019,0.077,0.005,87.314,0.008,2.035,13.075,978.523,339.223,0.05,0.319
2.422,303.467,146.912,-20.411,146.977,20.414,7.636,5.749e-4,7.636,0.004,4.371,0.311,28.61,-80.6,9.791,0.057,-6.593e-6,3.209,-0.027,2.207,0.658,0.376,0.002,1179.876,977.173,2.633,0.434,1.661e7,0,23.447,0.391,0.391,0.238,0.009,0.144,0.007,0.017,-3.849e-4,0,0,0,0,2.544e-4,0.019,0.077,0.005,87.458,-0.003,2.018,13.027,977.658,339.194,0.05,0.32
2.472,310.788,145.896,-20.232,145.96,20.25,7.854,6.173e-4,7.854,0.005,4.344,0.858,28.61,-80.6,9.791,0.13,4.744e-5,-3.139,-0.03,2.207,0.658,0.376,0.002,1178.315,977.173,2.612,0.431,1.648e7,0,23.103,0.391,0.391,0.238,0.009,0.144,0.015,0.04,3.168e-4,0,0,0,0,-2.468e-4,0.019,0.077,0.005,87.629,-0.004,2.043,12.98,976.8,339.165,0.05,0.322
2.522,318.057,144.888,-20.064,144.952,20.105,8.07,6.566e-4,8.07,0.005,4.286,1.282,28.61,-80.6,9.791,0.275,2.085e-5,-0.706,8.342e-4,2.207,0.658,0.376,0.002,1175.344,977.173,2.574,0.428,1.636e7,0,22.768,0.391,0.391,0.239,0.009,0.144,0.032,0.083,-2.458e-4,0,0,0,0,-1.266e-5,0.019,0.077,0.005,87.73,-0.003,2.182,12.933,975.947,339.136,0.05,0.324
2.572,325.277,143.889,-19.914,143.951,19.952,8.282,6.935e-4,8.282,0.005,4.22,1.236,28.61,-80.6,9.791,0.264,1.613e-6,2.124,-0.013,2.207,0.658,0.376,0.002,1175.485,977.173,2.575,0.425,1.624e7,0,22.434,0.391,0.391,0.239,0.008,0.143,0.031,0.08,-3.096e-5,0,0,0,0,1.161e-4,0.018,0.077,0.005,87.691,7.477e-4,2.258,12.886,975.101,339.108,0.05,0.326
2.622,332.446,142.897,-19.781,142.958,19.795,8.492,7.287e-4,8.492,0.005,4.168,0.752,28.61,-80.6,9.791,0.101,3.758e-5,4.194,-0.01,2.207,0.658,0.376,0.002,1178.676,977.173,2.617,0.422,1.612e7,0,22.101,0.391,0.391,0.239,0.008,0.143,0.012,0.03,-2.837e-4,0,0,0,0,4.592e-4,0.018,0.077,0.005,87.521,0.007,2.268,12.839,974.26,339.079,0.05,0.327
2.672,339.566,141.911,-19.663,141.971,19.663,8.7,7.644e-4,8.7,0.005,4.148,0.112,28.61,-80.6,9.791,0.126,3.604e-5,-3.936,-0.012,2.207,0.658,0.376,0.002,1178.103,977.173,2.609,0.419,1.6e7,0,21.776,0.391,0.391,0.24,0.008,0.143,0.015,0.039,-2.751e-4,0,0,0,0,-4.1e-4,0.018,0.077,0.005,87.303,0.004,2.2,12.793,973.425,339.051,0.05,0.329
2.722,346.637,140.93,-19.54,140.992,19.542,8.907,7.999e-4,8.907,0.005,4.155,0.273,28.61,-80.6,9.791,0.264,-1.301e-6,-1.885,0.017,2.207,0.658,0.376,0.002,1175.255,977.173,2.573,0.416,1.588e7,0,21.461,0.391,0.391,0.24,0.008,0.143,0.031,0.08,6.613e-5,0,0,0,0,-9.54e-5,0.018,0.077,0.005,87.15,-1.522e-4,2.184,12.747,972.595,339.023,0.05,0.331
2.772,353.66,139.957,-19.401,140.019,19.404,9.115,8.34e-4,9.115,0.005,4.172,0.322,28.61,-80.6,9.791,0.284,2.602e-5,0.742,0.012,2.207,0.658,0.376,0.002,1174.793,977.173,2.566,0.413,1.576e7,0,21.148,0.391,0.391,0.24,0.008,0.142,0.033,0.086,1.034e-4,0,0,0,0,1.496e-5,0.018,0.077,0.005,87.125,0.002,2.151,12.701,971.772,338.996,0.05,0.333
2.822,360.633,138.991,-19.242,139.053,19.242,9.324,8.671e-4,9.324,0.005,4.183,0.005,28.61,-80.6,9.791,0.166,-9.13e-6,3.191,-0.003,2.207,0.658,0.376,0.002,1177.07,977.173,2.596,0.41,1.564e7,0,20.836,0.391,0.391,0.241,0.008,0.142,0.019,0.05,-2.543e-4,0,0,0,0,2.809e-4,0.018,0.077,0.005,87.234,0.003,2.126,12.656,970.954,338.968,0.05,0.335
2.872,367.559,138.033,-19.078,138.096,19.086,9.533,9.002e-4,9.533,0.005,4.168,0.554,28.61,-80.6,9.791,0.042,2.035e-5,-3.658,-0.014,2.207,0.658,0.376,0.002,1179.518,977.173,2.628,0.408,1.552e7,0,20.532,0.391,0.391,0.241,0.008,0.142,0.005,0.013,-2.226e-5,0,0,0,0,-3.742e-4,0.018,0.077,0.005,87.418,-0.001,2.178,12.611,970.142,338.941,0.05,0.338
2.922,374.437,137.083,-18.925,137.145,18.952,9.741,9.319e-4,9.741,0.005,4.127,1.015,28.61,-80.6,9.791,0.221,4.113e-5,-2.424,-0.018,2.207,0.658,0.376,0.002,1175.83,977.173,2.58,0.405,1.541e7,0,20.237,0.39,0.391,0.241,0.008,0.141,0.026,0.067,-1.113e-4,0,0,0,0,-1.667e-4,0.018,0.077,0.005,87.579,-0.005,2.218,12.566,969.335,338.914,0.05,0.34
2.972,381.267,136.14,-18.788,136.201,18.823,9.946,9.609e-4,9.946,0.006,4.069,1.142,28.61,-80.6,9.791,0.276,2.418e-5,0.06,-0.003,2.207,0.658,0.376,0.002,1174.68,977.173,2.565,0.402,1.529e7,0,19.945,0.39,0.39,0.242,0.008,0.141,0.032,0.084,-3.267e-4,0,0,0,0,1.024e-7,0.017,0.077,0.005,87.64,-0.003,2.216,12.522,968.534,338.887,0.05,0.342
3.022,388.051,135.204,-18.665,135.263,18.686,10.148,9.884e-4,10.148,0.006,4.017,0.886,28.61,-80.6,9.791,0.185,8.385e-6,2.136,-0.001,2.207,0.658,0.376,0.002,1176.421,977.173,2.588,0.399,1.518e7,0,19.652,0.39,0.39,0.242,0.008,0.141,0.022,0.056,3.268e-4,0,0,0,0,1.33e-4,0.017,0.077,0.005,87.578,-2.813e-4,2.138,12.478,967.738,338.86,0.05,0.345
3.072,394.788,134.273,-18.553,134.332,18.559,10.348,0.001,10.348,0.006,3.984,0.452,28.61,-80.6,9.791,0.016,2.943e-5,3.088,-0.036,2.207,0.658,0.376,0.002,1179.776,977.173,2.631,0.397,1.507e7,0,19.364,0.39,0.39,0.242,0.007,0.14,0.002,0.004,7.055e-6,0,0,0,0,2.819e-4,0.017,0.077,0.005,87.436,0.007,2.057,12.434,966.948,338.834,0.05,0.349
3.122,401.478,133.348,-18.444,133.407,18.444,10.547,0.001,10.547,0.006,3.972,0.081,28.61,-80.6,9.791,0.133,2.348e-5,-2.424,-9.532e-4,2.207,0.658,0.376,0.002,1177.329,977.173,2.599,0.394,1.496e7,0,19.085,0.39,0.39,0.243,0.007,0.14,0.016,0.041,2.869e-4,0,0,0,0,-1.761e-4,0.017,0.077,0.005,87.29,0.016,2.012,12.39,966.163,338.807,0.05,0.352
3.172,408.123,132.429,-18.331,132.489,18.331,10.745,0.001,10.745,0.006,3.974,0.138,28.61,-80.6,9.791,0.223,2.94e-5,-0.986,-0.003,2.207,0.658,0.376,0.002,1175.463,977.173,2.575,0.391,1.484e7,0,18.81,0.39,0.39,0.243,0.007,0.14,0.026,0.068,-2.321e-4,0,0,0,0,-2.958e-5,0.017,0.077,0.005,87.202,0.02,1.972,12.347,965.384,338.781,0.05,0.354
3.222,414.721,131.515,-18.205,131.576,18.205,10.944,0.001,10.944,0.006,3.983,0.096,28.61,-80.6,9.791,0.207,1.866e-5,1.121,-0.003,2.207,0.658,0.376,0.002,1175.723,977.173,2.579,0.389,1.473e7,0,18.538,0.39,0.39,0.243,0.007,0.14,0.024,0.062,-2.197e-4,0,0,0,0,3.871e-5,0.017,0.077,0.005,87.208,0.02,1.944,12.304,964.61,338.755,0.05,0.356
3.272,421.274,130.608,-18.071,130.669,18.071,11.143,0.001,11.143,0.006,3.981,0.151,28.61,-80.6,9.791,0.104,3.786e-5,2.234,0.008,2.207,0.658,0.376,0.002,1177.729,977.173,2.605,0.386,1.463e7,0,18.269,0.39,0.39,0.244,0.007,0.139,0.012,0.031,1.395e-4,0,0,0,0,1.56e-4,0.017,0.077,0.005,87.299,0.014,1.95,12.262,963.842,338.73,0.05,0.358
3.322,427.782,129.708,-17.939,129.769,17.943,11.342,0.001,11.342,0.006,3.967,0.392,28.61,-80.6,9.791,0.004,3.068e-5,-2.749,0.016,2.207,0.658,0.376,0.002,1179.718,977.173,2.63,0.383,1.452e7,0,18.005,0.39,0.39,0.244,0.007,0.139,4.46e-4,0.002,1.833e-4,0,0,0,0,-2.394e-4,0.017,0.077,0.005,87.431,0.007,1.866,12.219,963.078,338.704,0.05,0.365
3.372,434.245,128.815,-17.812,128.875,17.823,11.54,0.001,11.54,0.006,3.942,0.618,28.61,-80.6,9.791,0.108,3.444e-5,-2.245,-0.007,2.207,0.658,0.376,0.002,1177.525,977.173,2.602,0.381,1.441e7,0,17.745,0.39,0.39,0.244,0.007,0.139,0.013,0.033,-4.37e-4,0,0,0,0,-1.62e-4,0.017,0.077,0.005,87.561,-2.331e-4,1.799,12.177,962.32,338.678,0.05,0.368
3.422,440.664,127.927,-17.691,127.987,17.707,11.736,0.001,11.736,0.006,3.906,0.755,28.61,-80.6,9.791,0.174,1.287e-5,-1.104,0.013,2.207,0.658,0.376,0.002,1176.132,977.173,2.584,0.378,1.43e7,0,17.49,0.39,0.39,0.245,0.007,0.139,0.02,0.053,-4.916e-4,0,0,0,0,-3.973e-5,0.016,0.077,0.005,87.646,-0.007,1.75,12.136,961.568,338.653,0.05,0.37
3.472,447.038,127.045,-17.577,127.104,17.593,11.93,0.001,11.93,0.006,3.868,0.764,28.61,-80.6,9.791,0.184,2.293e-5,0.361,-0.009,2.207,0.658,0.376,0.002,1175.884,977.173,2.581,0.376,1.42e7,0,17.239,0.39,0.39,0.245,0.007,0.138,0.021,0.055,-4.572e-4,0,0,0,0,4.307e-6,0.016,0.077,0.005,87.663,-0.01,1.731,12.094,960.82,338.628,0.05,0.372
3.522,453.368,126.169,-17.469,126.227,17.481,12.123,0.001,12.123,0.006,3.832,0.645,28.61,-80.6,9.791,0.134,2.251e-5,1.611,0.005,2.207,0.658,0.376,0.002,1176.826,977.173,2.593,0.373,1.409e7,0,16.991,0.39,0.39,0.245,0.007,0.138,0.016,0.041,-1.322e-4,0,0,0,0,8.691e-5,0.016,0.077,0.005,87.609,-0.012,1.732,12.053,960.078,338.603,0.05,0.374
3.572,459.655,125.298,-17.365,125.356,17.371,12.314,0.001,12.314,0.006,3.804,0.468,28.61,-80.6,9.791,0.054,3.407e-5,2.313,0.015,2.207,0.658,0.376,0.002,1178.391,977.173,2.613,0.37,1.399e7,0,16.746,0.39,0.39,0.246,0.007,0.138,0.006,0.016,-1.076e-4,0,0,0,0,1.817e-4,0.016,0.077,0.005,87.505,-0.005,1.769,12.012,959.34,338.578,0.05,0.377
3.622,465.898,124.433,-17.265,124.49,17.267,12.503,0.001,12.503,0.006,3.786,0.286,28.61,-80.6,9.791,0.032,2.36e-5,-2.424,0.009,2.207,0.658,0.376,0.002,1178.782,977.173,2.618,0.368,1.388e7,0,16.507,0.39,0.39,0.246,0.006,0.138,0.004,0.01,-3.721e-4,0,0,0,0,-2.022e-4,0.016,0.077,0.005,87.382,0.008,1.828,11.972,958.608,338.554,0.05,0.379
3.672,472.098,123.572,-17.166,123.63,17.166,12.692,0.001,12.692,0.006,3.776,0.114,28.61,-80.6,9.791,0.115,3.006e-5,-1.888,-0.001,2.207,0.658,0.376,0.002,1177.037,977.173,2.596,0.365,1.378e7,0,16.271,0.39,0.39,0.246,0.006,0.137,0.013,0.035,-7.767e-5,0,0,0,0,-1.244e-4,0.016,0.077,0.005,87.272,0.024,1.857,11.931,957.881,338.529,0.05,0.381
3.722,478.255,122.716,-17.062,122.774,17.062,12.881,0.001,12.881,0.007,3.773,0.096,28.61,-80.6,9.791,0.127,4.001e-5,-0.803,-0.016,2.207,0.658,0.376,0.002,1176.754,977.173,2.592,0.363,1.368e7,0,16.039,0.39,0.39,0.247,0.006,0.137,0.015,0.038,-2.445e-4,0,0,0,0,-2.282e-5,0.016,0.077,0.005,87.204,0.036,1.943,11.891,957.159,338.505,0.05,0.383
3.772,484.37,121.866,-16.956,121.924,16.956,13.07,0.002,13.07,0.007,3.765,0.141,28.61,-80.6,9.791,0.107,2.762e-5,-0.2,-0.003,2.207,0.658,0.376,0.002,1177.1,977.173,2.596,0.36,1.358e7,0,15.81,0.39,0.39,0.247,0.006,0.137,0.012,0.032,6.939e-5,0,0,0,0,-1.44e-6,0.016,0.077,0.005,87.181,0.036,2.012,11.852,956.442,338.481,0.05,0.384
3.822,490.442,121.021,-16.85,121.079,16.851,13.258,0.002,13.258,0.007,3.758,0.19,28.61,-80.6,9.791,0.082,2.931e-5,0.664,-0.021,2.207,0.658,0.376,0.002,1177.558,977.173,2.602,0.358,1.348e7,0,15.583,0.39,0.39,0.247,0.006,0.137,0.009,0.025,-1.453e-4,0,0,0,0,1.607e-5,0.016,0.077,0.005,87.195,0.024,1.994,11.812,955.729,338.457,0.05,0.386
3.872,496.472,120.181,-16.743,120.239,16.746,13.445,0.002,13.445,0.007,3.745,0.322,28.61,-80.6,9.791,0.014,2.526e-5,0.922,-0.014,2.207,0.658,0.376,0.002,1178.888,977.173,2.62,0.356,1.338e7,0,15.36,0.39,0.39,0.248,0.006,0.136,0.002,0.004,4.672e-4,0,0,0,0,3.133e-5,0.015,0.077,0.005,87.238,0.006,2.028,11.773,955.022,338.433,0.05,0.388
3.922,502.46,119.346,-16.64,119.404,16.644,13.632,0.002,13.632,0.007,3.727,0.369,28.61,-80.6,9.791,0.014,2.596e-5,-0.837,-0.036,2.207,0.658,0.376,0.002,1178.832,977.173,2.619,0.353,1.328e7,0,15.139,0.39,0.39,0.248,0.006,0.136,0.002,0.005,3.961e-4,0,0,0,0,-2.623e-5,0.015,0.077,0.005,87.284,-0.01,1.967,11.734,954.334,338.41,0.05,0.389
3.972,508.407,118.517,-16.539,118.575,16.545,13.818,0.002,13.818,0.007,3.708,0.43,28.61,-80.6,9.791,0.05,2.74e-5,-0.818,-0.015,2.207,0.658,0.376,0.002,1178.054,977.173,2.609,0.351,1.318e7,0,14.922,0.39,0.39,0.248,0.006,0.136,0.006,0.015,-4.203e-5,0,0,0,0,-2.538e-5,0.015,0.077,0.005,87.326,-0.018,1.928,11.695,953.669,338.386,0.05,0.391
4.022,514.312,117.692,-16.439,117.75,16.447,14.003,0.002,14.003,0.007,3.683,0.518,28.61,-80.6,9.791,0.099,2.911e-5,-0.174,-0.007,2.207,0.658,0.376,0.002,1177.007,977.173,2.595,0.348,1.308e7,0,14.71,0.39,0.39,0.249,0.006,0.136,0.011,0.03,-3.63e-4,0,0,0,0,-1.167e-6,0.015,0.077,0.005,87.352,-0.02,1.969,11.657,953.009,338.363,0.05,0.392
4.072,520.176,116.873,-16.346,116.93,16.352,14.186,0.002,14.186,0.007,3.658,0.457,28.61,-80.6,9.791,0.071,2.951e-5,0.457,0.007,2.207,0.658,0.376,0.002,1177.516,977.173,2.602,0.346,1.299e7,0,14.499,0.39,0.39,0.249,0.006,0.136,0.008,0.021,4.639e-5,0,0,0,0,8.135e-6,0.015,0.077,0.005,87.344,-0.019,1.91,11.619,952.354,338.34,0.05,0.395
4.122,525.999,116.058,-16.253,116.115,16.259,14.369,0.002,14.369,0.007,3.638,0.439,28.61,-80.6,9.791,0.063,2.704e-5,0.637,-0.01,2.207,0.658,0.376,0.002,1177.627,977.173,2.603,0.343,1.289e7,0,14.292,0.39,0.39,0.249,0.006,0.135,0.007,0.019,-2.675e-4,0,0,0,0,1.608e-5,0.015,0.077,0.005,87.314,-0.008,1.93,11.581,951.704,338.317,0.05,0.398
4.172,531.782,115.247,-16.162,115.304,16.167,14.55,0.002,14.55,0.007,3.614,0.399,28.61,-80.6,9.791,0.042,2.616e-5,1.307,-0.007,2.207,0.658,0.376,0.002,1178.008,977.173,2.608,0.341,1.279e7,0,14.088,0.391,0.391,0.25,0.006,0.135,0.005,0.013,2.94e-4,0,0,0,0,6.848e-5,0.015,0.077,0.005,87.265,0.007,1.983,11.543,951.058,338.294,0.05,0.401
4.222,537.524,114.441,-16.077,114.498,16.079,14.73,0.002,14.73,0.007,3.599,0.256,28.61,-80.6,9.791,0.035,2.275e-5,-1.144,-4.006e-4,2.207,0.658,0.376,0.002,1178.095,977.173,2.609,0.339,1.27e7,0,13.886,0.391,0.391,0.25,0.006,0.135,0.004,0.011,-4.607e-4,0,0,0,0,-5.325e-5,0.015,0.077,0.005,87.202,0.021,1.917,11.506,950.416,338.272,0.05,0.403
4.272,543.226,113.64,-15.987,113.696,15.989,14.91,0.002,14.91,0.007,3.587,0.255,28.61,-80.6,9.791,0.037,2.905e-5,-0.826,-0.022,2.207,0.658,0.376,0.002,1178.015,977.173,2.608,0.336,1.26e7,0,13.688,0.391,0.391,0.25,0.005,0.135,0.004,0.011,-3.445e-4,0,0,0,0,-2.813e-5,0.015,0.077,0.005,87.151,0.031,1.992,11.469,949.779,338.249,0.05,0.405
4.322,548.888,112.843,-15.898,112.899,15.9,15.089,0.002,15.089,0.007,3.573,0.273,28.61,-80.6,9.791,0.027,2.716e-5,-0.794,-0.034,2.207,0.658,0.376,0.002,1178.165,977.173,2.61,0.334,1.251e7,0,13.493,0.391,0.391,0.251,0.005,0.135,0.003,0.009,-3.905e-4,0,0,0,0,-2.636e-5,0.014,0.077,0.005,87.111,0.037,2.071,11.432,949.146,338.227,0.05,0.406
4.372,554.511,112.05,-15.811,112.106,15.813,15.267,0.002,15.267,0.008,3.56,0.263,28.61,-80.6,9.79,0.033,2.826e-5,-0.499,-0.023,2.207,0.658,0.376,0.002,1178.003,977.173,2.608,0.332,1.242e7,0,13.3,0.391,0.391,0.251,0.005,0.134,0.004,0.009,2.566e-4,0,0,0,0,-1.058e-5,0.014,0.077,0.005,87.079,0.039,2.09,11.396,948.518,338.205,0.05,0.408
4.422,560.093,111.262,-15.727,111.318,15.728,15.445,0.002,15.445,0.008,3.547,0.216,28.61,-80.6,9.79,0.059,3.035e-5,-0.39,-0.02,2.207,0.658,0.376,0.002,1177.428,977.173,2.601,0.329,1.233e7,0,13.109,0.391,0.391,0.251,0.005,0.134,0.007,0.018,-1.234e-4,0,0,0,0,-6.532e-6,0.014,0.077,0.005,87.057,0.035,2.06,11.359,947.894,338.183,0.05,0.41
4.472,565.637,110.477,-15.645,110.534,15.645,15.622,0.002,15.622,0.008,3.539,0.149,28.61,-80.6,9.79,0.096,2.937e-5,0.207,-0.01,2.207,0.658,0.376,0.002,1176.628,977.173,2.59,0.327,1.223e7,0,12.92,0.391,0.391,0.252,0.005,0.134,0.011,0.029,1.126e-4,0,0,0,0,1.878e-6,0.014,0.077,0.005,87.052,0.027,1.959,11.323,947.275,338.161,0.05,0.412
4.522,571.141,109.697,-15.558,109.754,15.559,15.799,0.002,15.799,0.008,3.531,0.199,28.61,-80.6,9.79,0.064,2.878e-5,0.687,-0.005,2.207,0.658,0.376,0.002,1177.225,977.173,2.598,0.325,1.214e7,0,12.734,0.391,0.391,0.252,0.005,0.134,0.007,0.019,-4.672e-4,0,0,0,0,2.09e-5,0.014,0.077,0.005,87.075,0.016,1.95,11.288,946.66,338.139,0.05,0.415
4.572,576.607,108.921,-15.468,108.978,15.471,15.975,0.002,15.975,0.008,3.518,0.343,28.61,-80.6,9.79,0.026,3.049e-5,-0.856,-0.007,2.207,0.658,0.376,0.002,1177.971,977.173,2.608,0.323,1.205e7,0,12.552,0.391,0.391,0.252,0.005,0.134,0.003,0.008,2.894e-4,0,0,0,0,-3.291e-5,0.014,0.077,0.005,87.116,0.006,2.021,11.252,946.049,338.118,0.05,0.417
4.622,582.033,108.15,-15.382,108.207,15.388,16.15,0.002,16.15,0.008,3.497,0.431,28.61,-80.6,9.79,0.083,2.818e-5,-0.367,0.009,2.207,0.658,0.376,0.002,1176.754,977.173,2.592,0.32,1.196e7,0,12.372,0.391,0.391,0.253,0.005,0.133,0.01,0.025,-4.026e-4,0,0,0,0,-6.128e-6,0.014,0.077,0.005,87.149,-0.004,2.054,11.217,945.443,338.096,0.05,0.42
4.672,587.422,107.383,-15.299,107.44,15.306,16.325,0.002,16.325,0.008,3.476,0.463,28.61,-80.6,9.79,0.108,2.848e-5,-0.03,0.006,2.207,0.658,0.376,0.002,1176.221,977.173,2.585,0.318,1.187e7,0,12.194,0.391,0.391,0.253,0.005,0.133,0.012,0.032,4.761e-6,0,0,0,0,-4.054e-8,0.014,0.077,0.005,87.159,-0.013,2.054,11.182,944.841,338.075,0.05,0.421
4.722,592.772,106.62,-15.217,106.676,15.226,16.498,0.002,16.498,0.008,3.45,0.531,28.61,-80.6,9.79,0.152,2.614e-5,0.754,-0.002,2.207,0.658,0.376,0.002,1175.287,977.173,2.573,0.316,1.178e7,0,12.02,0.391,0.391,0.254,0.005,0.133,0.018,0.045,-3.226e-4,0,0,0,0,2.663e-5,0.014,0.077,0.005,87.14,-0.014,2.163,11.147,944.243,338.054,0.05,0.423
4.772,598.084,105.862,-15.14,105.917,15.148,16.67,0.002,16.67,0.009,3.424,0.504,28.61,-80.6,9.79,0.136,3.483e-5,1.578,0.001,2.207,0.658,0.376,0.002,1175.553,977.173,2.576,0.314,1.169e7,0,11.847,0.391,0.392,0.254,0.005,0.133,0.016,0.041,1.719e-4,0,0,0,0,1.183e-4,0.014,0.077,0.005,87.081,-0.007,2.229,11.112,943.65,338.033,0.05,0.424
4.822,603.358,105.106,-15.067,105.161,15.073,16.84,0.003,16.84,0.009,3.401,0.403,28.61,-80.6,9.79,0.071,2.895e-5,2.116,0.004,2.207,0.658,0.376,0.002,1176.828,977.173,2.593,0.311,1.161e7,0,11.676,0.392,0.392,0.254,0.005,0.133,0.008,0.021,4.182e-4,0,0,0,0,2.159e-4,0.013,0.077,0.005,86.986,0.002,2.262,11.078,943.061,338.012,0.05,0.427
4.872,608.594,104.355,-14.998,104.41,15,17.01,0.003,17.01,0.009,3.384,0.268,28.61,-80.6,9.79,0.02,2.835e-5,-2.29,-0.01,2.207,0.658,0.376,0.002,1177.845,977.173,2.606,0.309,1.152e7,0,11.508,0.392,0.392,0.255,0.005,0.132,0.002,0.006,-1.158e-4,0,0,0,0,-2.565e-4,0.013,0.077,0.005,86.874,0.014,2.277,11.044,942.476,337.992,0.05,0.429
4.922,613.793,103.607,-14.93,103.661,14.93,17.179,0.003,17.179,0.009,3.374,0.139,28.61,-80.6,9.79,0.108,3.775e-5,-1.926,-0.011,2.207,0.658,0.376,0.002,1176.005,977.173,2.582,0.307,1.143e7,0,11.342,0.392,0.392,0.255,0.005,0.132,0.012,0.033,1.469e-4,0,0,0,0,-1.84e-4,0.013,0.077,0.005,86.766,0.024,2.279,11.01,941.895,337.971,0.05,0.431
4.972,618.955,102.862,-14.86,102.917,14.861,17.348,0.003,17.348,0.009,3.369,0.057,28.61,-80.6,9.79,0.166,3.277e-5,-1.247,-0.01,2.207,0.658,0.376,0.002,1174.8,977.173,2.567,0.305,1.135e7,0,11.178,0.392,0.392,0.255,0.005,0.132,0.019,0.049,3.408e-4,0,0,0,0,-7.822e-5,0.013,0.077,0.005,86.686,0.03,2.285,10.977,941.318,337.951,0.05,0.433
5.022,624.08,102.121,-14.786,102.176,14.787,17.516,0.003,17.516,0.009,3.367,0.071,28.61,-80.6,9.79,0.159,2.456e-5,-0.338,4.096e-4,2.207,0.658,0.376,0.002,1174.907,977.173,2.568,0.303,1.126e7,0,11.016,0.392,0.392,0.256,0.005,0.132,0.018,0.048,2.067e-4,0,0,0,0,-5.823e-6,0.013,0.077,0.005,86.647,0.029,2.329,10.943,940.746,337.931,0.05,0.435
5.072,629.167,101.383,-14.708,101.439,14.709,17.684,0.003,17.684,0.009,3.361,0.174,28.61,-80.6,9.79,0.088,2.661e-5,0.218,-0.011,2.207,0.658,0.376,0.002,1176.299,977.173,2.586,0.301,1.118e7,0,10.857,0.392,0.392,0.256,0.005,0.132,0.01,0.027,-2.854e-4,0,0,0,0,2.464e-6,0.013,0.077,0.005,86.646,0.023,2.427,10.91,940.177,337.911,0.05,0.437
5.122,634.218,100.65,-14.631,100.705,14.634,17.852,0.003,17.852,0.009,3.35,0.259,28.61,-80.6,9.79,0.025,2.795e-5,0.469,-0.014,2.207,0.658,0.376,0.002,1177.531,977.173,2.602,0.298,1.109e7,0,10.699,0.392,0.392,0.256,0.004,0.132,0.003,0.008,4.82e-4,0,0,0,0,1.156e-5,0.013,0.077,0.005,86.666,0.013,2.471,10.878,939.613,337.891,0.05,0.44
5.172,639.232,99.92,-14.56,99.976,14.563,18.019,0.003,18.019,0.009,3.336,0.258,28.61,-80.6,9.79,0.022,2.908e-5,0.483,-0.021,2.207,0.658,0.376,0.002,1177.557,977.173,2.602,0.296,1.101e7,0,10.543,0.392,0.392,0.257,0.004,0.131,0.003,0.006,4.609e-4,0,0,0,0,1.244e-5,0.013,0.077,0.005,86.692,0.003,2.403,10.845,939.053,337.871,0.05,0.442
5.222,644.21,99.194,-14.489,99.249,14.492,18.186,0.003,18.186,0.009,3.324,0.282,28.61,-80.6,9.79,0.001,3.109e-5,-0.335,-0.671,2.207,0.658,0.376,0.002,1177.947,977.173,2.607,0.294,1.092e7,0,10.388,0.393,0.393,0.257,0.004,0.131,1.506e-4,-6.219e-5,-3.839e-4,0,0,0,0,-6.083e-6,0.013,0.077,0.005,86.723,-0.007,2.354,10.813,938.496,337.851,0.05,0.445
5.272,649.152,98.471,-14.414,98.527,14.419,18.351,0.003,18.351,0.009,3.307,0.405,28.61,-80.6,9.79,0.095,2.742e-5,-0.456,-0.002,2.207,0.658,0.376,0.002,1175.991,977.173,2.582,0.292,1.084e7,0,10.238,0.393,0.393,0.257,0.004,0.131,0.011,0.028,-4.324e-4,0,0,0,0,-1.139e-5,0.013,0.077,0.005,86.753,-0.014,2.448,10.781,937.944,337.832,0.05,0.448
5.322,654.057,97.752,-14.343,97.807,14.35,18.516,0.003,18.516,0.01,3.284,0.467,28.61,-80.6,9.79,0.145,2.725e-5,0.148,0.005,2.207,0.658,0.376,0.002,1174.944,977.173,2.568,0.29,1.076e7,0,10.089,0.393,0.393,0.258,0.004,0.131,0.017,0.043,4.193e-4,0,0,0,0,1.219e-6,0.013,0.077,0.005,86.762,-0.018,2.498,10.749,937.396,337.813,0.05,0.451
5.372,658.927,97.037,-14.279,97.092,14.284,18.68,0.003,18.68,0.01,3.261,0.4,28.61,-80.6,9.79,0.099,2.82e-5,0.777,0.007,2.207,0.658,0.376,0.002,1175.844,977.173,2.58,0.288,1.067e7,0,9.94,0.393,0.393,0.258,0.004,0.131,0.011,0.03,2.47e-4,0,0,0,0,3.417e-5,0.012,0.077,0.005,86.739,-0.016,2.437,10.717,936.852,337.793,0.05,0.453
5.422,663.761,96.324,-14.218,96.379,14.221,18.842,0.003,18.842,0.01,3.245,0.289,28.61,-80.6,9.79,0.016,2.789e-5,0.926,0.05,2.207,0.658,0.376,0.002,1177.501,977.173,2.602,0.286,1.059e7,0,9.793,0.393,0.393,0.258,0.004,0.131,0.002,0.005,-3.131e-5,0,0,0,0,4.918e-5,0.012,0.077,0.005,86.694,-0.008,2.342,10.686,936.312,337.774,0.05,0.456
5.472,668.56,95.615,-14.159,95.67,14.16,19.004,0.003,19.004,0.01,3.233,0.172,28.61,-80.6,9.79,0.075,2.948e-5,-0.916,0.018,2.207,0.658,0.376,0.002,1176.262,977.173,2.586,0.284,1.051e7,0,9.648,0.393,0.393,0.259,0.004,0.13,0.009,0.022,-4.312e-4,0,0,0,0,-4.888e-5,0.012,0.077,0.005,86.646,0.004,2.244,10.654,935.776,337.755,0.05,0.459
5.522,673.323,94.908,-14.098,94.963,14.098,19.166,0.003,19.166,0.01,3.227,0.113,28.61,-80.6,9.79,0.121,2.9e-5,-0.296,0.019,2.207,0.658,0.376,0.002,1175.293,977.173,2.573,0.281,1.043e7,0,9.505,0.393,0.393,0.259,0.004,0.13,0.014,0.036,-1.001e-4,0,0,0,0,-5.172e-6,0.012,0.077,0.005,86.615,0.02,2.181,10.623,935.244,337.737,0.05,0.461
5.572,678.05,94.205,-14.035,94.26,14.035,19.327,0.003,19.327,0.01,3.22,0.101,28.61,-80.6,9.79,0.13,2.852e-5,0.024,0.014,2.207,0.658,0.376,0.002,1175.074,977.173,2.57,0.279,1.034e7,0,9.364,0.394,0.394,0.259,0.004,0.13,0.015,0.039,-4.653e-4,0,0,0,0,3.586e-8,0.012,0.077,0.005,86.608,0.033,2.151,10.593,934.716,337.718,0.05,0.463
5.622,682.743,93.505,-13.977,93.56,13.977,19.488,0.003,19.488,0.01,3.218,0.007,28.61,-80.6,9.79,0.203,3.134e-5,0.765,0.019,2.207,0.658,0.376,0.002,1173.58,977.173,2.551,0.277,1.026e7,0,9.224,0.394,0.394,0.26,0.004,0.13,0.024,0.06,3.895e-4,0,0,0,0,3.561e-5,0.012,0.077,0.005,86.628,0.042,1.956,10.562,934.191,337.7,0.05,0.465
5.672,687.401,92.808,-13.915,92.863,13.915,19.649,0.003,19.649,0.01,3.219,0.011,28.61,-80.6,9.79,0.214,3.23e-5,1.689,0.016,2.207,0.658,0.376,0.002,1173.329,977.173,2.547,0.275,1.018e7,0,9.086,0.394,0.394,0.26,0.004,0.13,0.025,0.063,9.415e-5,0,0,0,0,1.765e-4,0.012,0.077,0.005,86.69,0.045,1.799,10.532,933.671,337.681,0.05,0.467
5.722,692.024,92.114,-13.846,92.17,13.846,19.81,0.003,19.81,0.01,3.217,0.097,28.61,-80.6,9.79,0.119,2.941e-5,2.392,0.027,2.207,0.658,0.376,0.002,1175.196,977.173,2.572,0.273,1.01e7,0,8.949,0.394,0.394,0.261,0.004,0.13,0.014,0.035,3.289e-4,0,0,0,0,3.593e-4,0.012,0.077,0.005,86.793,0.043,1.752,10.502,933.154,337.663,0.05,0.471
5.772,696.612,91.423,-13.776,91.479,13.779,19.97,0.004,19.97,0.01,3.208,0.268,28.61,-80.6,9.79,0.036,2.746e-5,-2.549,0.084,2.207,0.658,0.376,0.002,1176.859,977.173,2.593,0.271,1.002e7,0,8.816,0.394,0.394,0.261,0.004,0.13,0.004,0.011,-3.981e-4,0,0,0,0,-4.14e-4,0.012,0.077,0.005,86.92,0.033,1.772,10.472,932.642,337.645,0.05,0.472
5.822,701.166,90.736,-13.71,90.792,13.716,20.131,0.004,20.131,0.01,3.191,0.386,28.61,-80.6,9.79,0.148,2.794e-5,-2.098,0.022,2.207,0.658,0.376,0.002,1174.555,977.173,2.563,0.269,9.944e6,0,8.684,0.394,0.394,0.261,0.004,0.129,0.017,0.044,1.902e-4,0,0,0,0,-2.847e-4,0.012,0.077,0.005,87.038,0.015,1.742,10.442,932.133,337.627,0.05,0.474
5.872,705.686,90.052,-13.647,90.108,13.656,20.29,0.004,20.29,0.01,3.17,0.49,28.61,-80.6,9.79,0.248,2.923e-5,-1.484,0.009,2.207,0.658,0.376,0.002,1172.521,977.173,2.537,0.267,9.866e6,0,8.555,0.395,0.395,0.262,0.004,0.129,0.029,0.074,2.163e-4,0,0,0,0,-1.446e-4,0.012,0.077,0.005,87.129,-0.005,1.738,10.413,931.628,337.609,0.05,0.476
5.922,710.172,89.371,-13.584,89.426,13.598,20.447,0.004,20.447,0.011,3.142,0.607,28.61,-80.6,9.79,0.358,2.921e-5,-0.261,0.008,2.207,0.658,0.376,0.002,1170.331,977.173,2.509,0.265,9.788e6,0,8.429,0.395,0.395,0.262,0.004,0.129,0.042,0.106,8.314e-5,0,0,0,0,-4.525e-6,0.011,0.077,0.005,87.173,-0.02,1.836,10.384,931.127,337.592,0.05,0.478
5.972,714.623,88.693,-13.526,88.748,13.54,20.604,0.004,20.604,0.011,3.111,0.628,28.61,-80.6,9.79,0.383,2.574e-5,1.114,0.007,2.207,0.658,0.376,0.002,1169.824,977.173,2.502,0.263,9.711e6,0,8.303,0.395,0.395,0.262,0.004,0.129,0.045,0.113,-2.599e-4,0,0,0,0,8.405e-5,0.011,0.077,0.005,87.151,-0.027,1.899,10.355,930.63,337.574,0.05,0.481
6.022,719.041,88.019,-13.472,88.072,13.483,20.758,0.004,20.758,0.011,3.08,0.555,28.61,-80.6,9.79,0.322,3.161e-5,2.424,0.018,2.207,0.658,0.376,0.002,1170.974,977.173,2.517,0.261,9.634e6,0,8.177,0.395,0.395,0.263,0.004,0.129,0.038,0.094,-4.969e-4,0,0,0,0,4.039e-4,0.011,0.077,0.005,87.061,-0.029,1.935,10.326,930.136,337.557,0.05,0.483
6.072,723.425,87.346,-13.422,87.4,13.428,20.912,0.004,20.912,0.011,3.056,0.403,28.61,-80.6,9.79,0.182,1.966e-5,3.341,0.032,2.207,0.658,0.376,0.002,1173.705,977.173,2.552,0.259,9.557e6,0,8.052,0.395,0.395,0.263,0.004,0.129,0.021,0.053,4.01e-4,0,0,0,0,7.79e-4,0.011,0.077,0.005,86.914,-0.025,1.929,10.298,929.646,337.539,0.05,0.485
6.122,727.776,86.676,-13.375,86.73,13.377,21.064,0.004,21.064,0.011,3.041,0.235,28.61,-80.6,9.79,0.018,3.002e-5,3.649,0.269,2.207,0.658,0.376,0.002,1176.988,977.173,2.595,0.257,9.481e6,0,7.929,0.396,0.396,0.263,0.004,0.129,0.002,0.005,2.709e-4,0,0,0,0,9.436e-4,0.011,0.077,0.005,86.736,-0.016,1.927,10.269,929.16,337.522,0.05,0.487
6.172,732.093,86.009,-13.33,86.062,13.331,21.216,0.004,21.216,0.011,3.033,0.069,28.61,-80.6,9.79,0.149,2.473e-5,-3.46,0.035,2.207,0.658,0.376,0.002,1174.312,977.173,2.56,0.255,9.405e6,0,7.808,0.396,0.396,0.264,0.004,0.128,0.017,0.045,7.551e-5,0,0,0,0,-8.615e-4,0.011,0.077,0.005,86.555,-0.003,1.917,10.241,928.678,337.505,0.05,0.489
6.222,736.377,85.343,-13.285,85.397,13.285,21.368,0.004,21.368,0.011,3.033,0.058,28.61,-80.6,9.79,0.28,2.721e-5,-2.642,0.016,2.207,0.658,0.376,0.002,1171.687,977.173,2.526,0.253,9.329e6,0,7.69,0.396,0.396,0.264,0.003,0.128,0.033,0.083,1.644e-4,0,0,0,0,-5.103e-4,0.011,0.077,0.005,86.401,0.011,1.912,10.214,928.199,337.488,0.05,0.492
6.272,740.627,84.68,-13.238,84.735,13.239,21.519,0.004,21.519,0.011,3.038,0.139,28.61,-80.6,9.79,0.365,2.65e-5,-1.635,0.014,2.207,0.658,0.376,0.002,1169.994,977.173,2.504,0.251,9.253e6,0,7.574,0.396,0.396,0.265,0.003,0.128,0.043,0.108,4.529e-4,0,0,0,0,-1.985e-4,0.011,0.077,0.005,86.293,0.023,1.905,10.186,927.724,337.472,0.05,0.495
6.322,744.845,84.019,-13.188,84.075,13.189,21.672,0.004,21.672,0.011,3.047,0.174,28.61,-80.6,9.79,0.404,3.035e-5,-0.278,0.008,2.207,0.658,0.376,0.002,1169.21,977.173,2.494,0.249,9.178e6,0,7.458,0.396,0.397,0.265,0.003,0.128,0.048,0.118,-2.597e-4,0,0,0,0,-5.839e-6,0.011,0.077,0.005,86.246,0.033,1.87,10.159,927.253,337.455,0.05,0.497
6.372,749.029,83.361,-13.131,83.417,13.131,21.824,0.004,21.824,0.011,3.054,0.105,28.61,-80.6,9.79,0.338,3.002e-5,0.921,0.014,2.207,0.658,0.376,0.002,1170.456,977.173,2.51,0.247,9.104e6,0,7.342,0.397,0.397,0.265,0.003,0.128,0.04,0.1,-3.593e-4,0,0,0,0,6.495e-5,0.011,0.077,0.005,86.263,0.04,1.898,10.131,926.786,337.438,0.05,0.501
6.422,753.181,82.706,-13.071,82.763,13.071,21.977,0.004,21.977,0.011,3.056,0.006,28.61,-80.6,9.79,0.224,2.934e-5,1.808,0.01,2.207,0.658,0.376,0.002,1172.681,977.173,2.539,0.246,9.03e6,0,7.228,0.397,0.397,0.266,0.003,0.128,0.026,0.066,-1.514e-4,0,0,0,0,2.544e-4,0.011,0.077,0.005,86.333,0.042,1.921,10.104,926.322,337.422,0.05,0.503
6.472,757.3,82.054,-13.01,82.111,13.011,22.13,0.004,22.13,0.011,3.053,0.167,28.61,-80.6,9.79,0.047,3.209e-5,2.303,0.068,2.207,0.658,0.376,0.002,1176.209,977.173,2.585,0.244,8.956e6,0,7.115,0.397,0.397,0.266,0.003,0.128,0.005,0.013,-2.876e-4,0,0,0,0,4.191e-4,0.011,0.077,0.005,86.439,0.039,1.989,10.078,925.861,337.406,0.05,0.506
6.522,761.386,81.405,-12.949,81.462,12.954,22.282,0.004,22.282,0.011,3.039,0.354,28.61,-80.6,9.79,0.165,2.268e-5,-2.071,0.029,2.207,0.658,0.376,0.002,1173.798,977.173,2.554,0.242,8.884e6,0,7.006,0.397,0.397,0.266,0.003,0.128,0.019,0.049,3.379e-4,0,0,0,0,-3.443e-4,0.01,0.077,0.005,86.551,0.031,2.107,10.051,925.405,337.39,0.05,0.509
6.572,765.44,80.759,-12.895,80.816,12.903,22.433,0.004,22.433,0.011,3.018,0.44,28.61,-80.6,9.79,0.269,2.249e-5,-1.315,0.021,2.207,0.658,0.376,0.002,1171.701,977.173,2.526,0.24,8.81e6,0,6.898,0.398,0.398,0.267,0.003,0.127,0.031,0.079,-3.045e-4,0,0,0,0,-1.411e-4,0.01,0.077,0.005,86.638,0.02,2.111,10.025,924.952,337.374,0.05,0.511
6.622,769.462,80.116,-12.844,80.172,12.853,22.584,0.005,22.584,0.011,2.996,0.477,28.61,-80.6,9.79,0.319,2.953e-5,-0.544,0.01,2.207,0.658,0.376,0.002,1170.701,977.173,2.513,0.238,8.737e6,0,6.79,0.398,0.398,0.267,0.003,0.127,0.037,0.094,4.52e-4,0,0,0,0,-2.452e-5,0.01,0.077,0.005,86.684,0.007,2.092,9.998,924.503,337.358,0.05,0.513
6.672,773.452,79.475,-12.795,79.53,12.805,22.733,0.005,22.733,0.012,2.971,0.505,28.61,-80.6,9.79,0.358,2.92e-5,0.536,0.016,2.207,0.658,0.376,0.002,1169.908,977.173,2.503,0.236,8.665e6,0,6.685,0.398,0.398,0.268,0.003,0.127,0.042,0.106,-4.983e-4,0,0,0,0,2.418e-5,0.01,0.077,0.005,86.684,-0.004,2.134,9.973,924.057,337.342,0.05,0.515
6.722,777.41,78.836,-12.749,78.891,12.757,22.881,0.005,22.881,0.012,2.946,0.462,28.61,-80.6,9.79,0.316,2.938e-5,1.489,0.017,2.207,0.658,0.376,0.002,1170.69,977.173,2.513,0.234,8.593e6,0,6.579,0.398,0.398,0.268,0.003,0.127,0.037,0.093,4.18e-4,0,0,0,0,1.898e-4,0.01,0.077,0.005,86.633,-0.014,2.129,9.947,923.615,337.327,0.05,0.517
6.772,781.336,78.2,-12.706,78.255,12.712,23.028,0.005,23.028,0.012,2.925,0.373,28.61,-80.6,9.79,0.217,2.877e-5,2.291,0.026,2.207,0.658,0.376,0.002,1172.622,977.173,2.538,0.232,8.521e6,0,6.473,0.398,0.399,0.268,0.003,0.127,0.025,0.064,2.984e-4,0,0,0,0,4.567e-4,0.01,0.077,0.005,86.537,-0.018,2.104,9.921,923.176,337.311,0.05,0.519
6.822,785.23,77.566,-12.665,77.62,12.668,23.173,0.005,23.173,0.012,2.91,0.263,28.61,-80.6,9.79,0.087,3.135e-5,2.675,0.061,2.207,0.658,0.376,0.002,1175.196,977.173,2.572,0.23,8.449e6,0,6.369,0.399,0.399,0.269,0.003,0.127,0.01,0.025,-2.737e-4,0,0,0,0,6.329e-4,0.01,0.077,0.005,86.41,-0.018,2.073,9.896,922.741,337.296,0.05,0.521
6.872,789.092,76.933,-12.627,76.988,12.628,23.319,0.005,23.319,0.012,2.899,0.138,28.61,-80.6,9.79,0.069,2.991e-5,-2.764,0.074,2.207,0.658,0.376,0.002,1175.538,977.173,2.576,0.229,8.377e6,0,6.267,0.399,0.399,0.269,0.003,0.127,0.008,0.021,-1.788e-4,0,0,0,0,-6.864e-4,0.01,0.077,0.005,86.273,-0.015,2.018,9.871,922.309,337.281,0.05,0.523
6.922,792.923,76.303,-12.59,76.358,12.59,23.464,0.005,23.464,0.012,2.896,0.013,28.61,-80.6,9.79,0.226,3.254e-5,-2.284,0.021,2.207,0.658,0.376,0.002,1172.361,977.173,2.535,0.227,8.306e6,0,6.167,0.399,0.399,0.27,0.003,0.127,0.026,0.067,-3.991e-4,0,0,0,0,-4.766e-4,0.01,0.077,0.005,86.145,-0.008,1.94,9.846,921.881,337.266,0.05,0.525
6.972,796.723,75.674,-12.55,75.73,12.551,23.608,0.005,23.608,0.012,2.897,0.057,28.61,-80.6,9.79,0.318,2.962e-5,-1.584,0.015,2.207,0.658,0.376,0.002,1170.538,977.173,2.511,0.225,8.235e6,0,6.069,0.399,0.4,0.27,0.003,0.127,0.037,0.094,1.281e-4,0,0,0,0,-2.332e-4,0.01,0.077,0.005,86.047,0.002,1.909,9.821,921.457,337.251,0.05,0.526
7.022,800.491,75.048,-12.511,75.104,12.511,23.753,0.005,23.753,0.012,2.901,0.121,28.61,-80.6,9.79,0.401,2.681e-5,-0.662,0.015,2.207,0.658,0.376,0.002,1168.897,977.173,2.49,0.223,8.164e6,0,5.971,0.4,0.4,0.27,0.003,0.126,0.047,0.118,1.627e-4,0,0,0,0,-4.143e-5,0.01,0.077,0.005,85.991,0.013,1.83,9.797,921.036,337.236,0.05,0.528
7.072,804.227,74.423,-12.468,74.48,12.469,23.899,0.005,23.899,0.012,2.909,0.144,28.61,-80.6,9.79,0.433,2.637e-5,0.46,0.015,2.207,0.658,0.376,0.002,1168.257,977.173,2.482,0.221,8.094e6,0,5.874,0.4,0.4,0.271,0.003,0.126,0.051,0.127,2.954e-4,0,0,0,0,2.031e-5,0.01,0.077,0.005,85.986,0.024,1.748,9.773,920.618,337.221,0.05,0.53
7.122,807.933,73.801,-12.421,73.859,12.422,24.044,0.005,24.044,0.012,2.915,0.101,28.61,-80.6,9.79,0.38,2.887e-5,1.478,0.017,2.207,0.658,0.376,0.002,1169.256,977.173,2.495,0.219,8.024e6,0,5.777,0.4,0.4,0.271,0.003,0.126,0.045,0.111,-2.178e-4,0,0,0,0,2.135e-4,0.009,0.077,0.005,86.035,0.033,1.709,9.748,920.204,337.206,0.05,0.534
7.172,811.607,73.181,-12.371,73.239,12.371,24.19,0.005,24.19,0.012,2.918,0.008,28.61,-80.6,9.79,0.255,2.967e-5,2.297,0.028,2.207,0.658,0.376,0.002,1171.674,977.173,2.526,0.217,7.954e6,0,5.682,0.401,0.401,0.272,0.003,0.126,0.03,0.075,-4.457e-4,0,0,0,0,5.242e-4,0.009,0.077,0.005,86.131,0.041,1.705,9.725,919.794,337.192,0.05,0.536
7.222,815.251,72.564,-12.32,72.622,12.32,24.336,0.005,24.336,0.012,2.915,0.115,28.61,-80.6,9.79,0.083,3.358e-5,2.678,0.074,2.207,0.658,0.376,0.002,1175.097,977.173,2.57,0.216,7.885e6,0,5.588,0.401,0.401,0.272,0.003,0.126,0.01,0.023,1.255e-4,0,0,0,0,7.245e-4,0.009,0.077,0.005,86.257,0.048,1.729,9.701,919.387,337.178,0.05,0.537
7.272,818.864,71.949,-12.269,72.008,12.272,24.481,0.005,24.481,0.012,2.906,0.271,28.61,-80.6,9.79,0.146,2.667e-5,-2.681,0.04,2.207,0.658,0.376,0.002,1173.79,977.173,2.553,0.214,7.817e6,0,5.497,0.401,0.401,0.272,0.003,0.126,0.017,0.044,3.697e-4,0,0,0,0,-7.387e-4,0.009,0.077,0.005,86.393,0.05,1.815,9.677,918.983,337.163,0.05,0.539
7.322,822.446,71.337,-12.22,71.395,12.227,24.626,0.005,24.626,0.012,2.888,0.42,28.61,-80.6,9.79,0.365,2.583e-5,-1.965,0.018,2.207,0.658,0.376,0.002,1169.449,977.173,2.497,0.212,7.749e6,0,5.409,0.401,0.402,0.273,0.003,0.126,0.043,0.108,3.909e-4,0,0,0,0,-4.034e-4,0.009,0.077,0.005,86.512,0.049,1.921,9.654,918.583,337.149,0.05,0.541
7.372,825.998,70.727,-12.176,70.785,12.186,24.77,0.005,24.77,0.012,2.865,0.476,28.61,-80.6,9.79,0.457,2.679e-5,-1.03,0.015,2.207,0.658,0.376,0.002,1167.666,977.173,2.474,0.21,7.681e6,0,5.32,0.402,0.402,0.273,0.003,0.126,0.054,0.134,-4.045e-5,0,0,0,0,-1.128e-4,0.009,0.077,0.005,86.588,0.042,1.919,9.631,918.186,337.135,0.05,0.543
7.422,829.519,70.119,-12.137,70.177,12.146,24.913,0.005,24.913,0.013,2.841,0.465,28.61,-80.6,9.79,0.453,2.674e-5,0.04,0.016,2.207,0.658,0.376,0.002,1167.711,977.173,2.475,0.208,7.612e6,0,5.231,0.402,0.402,0.274,0.003,0.126,0.054,0.133,2.362e-4,0,0,0,0,1.731e-7,0.009,0.077,0.005,86.612,0.032,1.867,9.608,917.793,337.121,0.05,0.545
7.472,833.01,69.513,-12.099,69.571,12.106,25.054,0.006,25.054,0.013,2.819,0.418,28.61,-80.6,9.79,0.397,2.674e-5,0.939,0.012,2.207,0.658,0.376,0.002,1168.764,977.173,2.488,0.207,7.544e6,0,5.141,0.402,0.403,0.274,0.003,0.126,0.047,0.117,-2.435e-4,0,0,0,0,9.696e-5,0.009,0.077,0.005,86.587,0.02,1.809,9.585,917.403,337.108,0.05,0.547
7.522,836.47,68.909,-12.06,68.966,12.067,25.195,0.006,25.195,0.013,2.799,0.413,28.61,-80.6,9.79,0.396,2.598e-5,1.766,0.012,2.207,0.658,0.376,0.002,1168.774,977.173,2.488,0.205,7.477e6,0,5.055,0.403,0.403,0.275,0.003,0.125,0.047,0.115,-1.01e-4,0,0,0,0,3.493e-4,0.009,0.077,0.005,86.518,0.01,1.871,9.563,917.016,337.094,0.05,0.55
7.572,839.901,68.307,-12.024,68.364,12.029,25.334,0.006,25.334,0.013,2.779,0.354,28.61,-80.6,9.79,0.312,2.211e-5,2.661,0.018,2.207,0.658,0.376,0.002,1170.378,977.173,2.509,0.203,7.41e6,0,4.969,0.403,0.403,0.275,0.003,0.125,0.037,0.091,3.101e-4,0,0,0,0,8.066e-4,0.009,0.077,0.005,86.407,0.002,1.886,9.541,916.633,337.081,0.05,0.552
7.622,843.301,67.707,-11.991,67.763,11.994,25.473,0.006,25.473,0.013,2.764,0.243,28.61,-80.6,9.79,0.142,3.022e-5,3.029,0.035,2.207,0.658,0.376,0.002,1173.723,977.173,2.553,0.201,7.342e6,0,4.883,0.403,0.403,0.275,0.003,0.125,0.016,0.041,6.805e-6,0,0,0,0,0.001,0.009,0.077,0.005,86.263,-0.003,1.824,9.519,916.253,337.067,0.05,0.554
7.672,846.671,67.108,-11.955,67.165,11.957,25.611,0.006,25.611,0.013,2.754,0.223,28.61,-80.6,9.79,0.108,2.654e-5,3.239,0.054,2.207,0.658,0.376,0.002,1174.396,977.173,2.561,0.2,7.277e6,0,4.8,0.404,0.404,0.276,0.003,0.125,0.012,0.031,1.313e-4,0,0,0,0,0.001,0.009,0.077,0.005,86.104,-0.006,1.941,9.497,915.876,337.054,0.05,0.555
7.722,850.012,66.512,-11.92,66.568,11.922,25.748,0.006,25.748,0.013,2.742,0.187,28.61,-80.6,9.79,0.044,1.994e-5,3.514,0.133,2.207,0.658,0.376,0.002,1175.655,977.173,2.578,0.198,7.211e6,0,4.718,0.404,0.404,0.276,0.003,0.125,0.005,0.011,-4.203e-4,0,0,0,0,0.001,0.009,0.077,0.005,85.935,-0.007,2.037,9.475,915.503,337.041,0.05,0.557
7.772,853.323,65.916,-11.89,65.973,11.891,25.885,0.006,25.885,0.013,2.736,0.088,28.61,-80.6,9.79,0.127,2.406e-5,-3.369,0.046,2.207,0.658,0.376,0.002,1173.969,977.173,2.556,0.196,7.145e6,0,4.637,0.404,0.404,0.277,0.002,0.125,0.015,0.039,-2.256e-5,0,0,0,0,-0.001,0.008,0.077,0.005,85.762,-0.007,2,9.453,915.133,337.028,0.05,0.558
7.822,856.603,65.323,-11.86,65.38,11.86,26.022,0.006,26.022,0.013,2.733,0.014,28.61,-80.6,9.79,0.257,2.108e-5,-2.979,0.024,2.207,0.658,0.376,0.002,1171.349,977.173,2.522,0.194,7.079e6,0,4.557,0.405,0.405,0.277,0.002,0.125,0.03,0.077,-2.761e-4,0,0,0,0,-0.001,0.008,0.077,0.005,85.602,-0.005,1.994,9.432,914.767,337.015,0.05,0.559
7.872,859.855,64.73,-11.828,64.788,11.828,26.158,0.006,26.158,0.013,2.734,0.034,28.61,-80.6,9.79,0.345,2.634e-5,-2.385,0.016,2.207,0.658,0.376,0.002,1169.608,977.173,2.499,0.193,7.013e6,0,4.478,0.405,0.405,0.278,0.002,0.125,0.041,0.102,7.934e-5,0,0,0,0,-7.215e-4,0.008,0.077,0.005,85.467,-0.001,2.004,9.411,914.403,337.002,0.05,0.56
